start_station_name,start_lat,start_lng
67 St & Erik Pl,40.633385,-74.016562
5 Ave & 66 St,40.635679,-74.020005
7 Ave & 62 St,40.63556,-74.01298
4 Ave & Shore Road Dr,40.636961579,-74.022224545
57 St & 7 Ave,40.638566,-74.010147
63 St & 5 Ave,40.63766,-74.01782
3 Ave & Wakeman Pl,40.638246,-74.024714
6 Ave & 60 St,40.638293028,-74.013754487
62 St & 4 Ave,40.639897585,-74.019822836
Wakeman Pl & Ridge Blvd,40.639421,-74.026823
55 St & 7 Ave,40.639654517,-74.009075642
59 St & 5 Ave,40.640125,-74.015726
64 St & 3 Ave,40.639978,-74.02324
6 Ave & 55 St,40.640723467,-74.011145353
Church Ave & Story St,40.642120004,-73.981065035
59 St & 4 Ave,40.641269,-74.017651
65 St & 2 Ave,40.640468478,-74.025617123
Keegan Rd & 2 Ave,40.64243139706092,-74.0255355834961
50 St & 7 Ave,40.642465591,-74.006090522
E 3 St & Church Ave,40.643817,-73.977433
55 St & 5 Ave,40.642408,-74.013318
12 Ave & 36 St,40.643618345,-73.98635602
52 St & 6 Ave,40.642703,-74.009441
Church Ave & McDonald Ave,40.642827511,-73.979177356
57 St & 4 Ave,40.642622,-74.016866
46 St & 7 Ave,40.644788504,-74.003790259
Ocean Pkwy & Church Ave,40.64471895763575,-73.97451460361481
53 St & 5 Ave,40.643371,-74.011884
Chester Ave & 12 Ave,40.644299984,-73.984175324
58 St & 2 Ave,40.644584537,-74.021358252
46 St & 6 Ave,40.645921,-74.005708
Albemarle Rd & McDonald Ave,40.645072579,-73.979671717
53 St & 4 Ave,40.644923329,-74.014677048
57 St & 1 Ave,40.646311164,-74.022932172
7 Ave & 41 St,40.647379,-74.000911
Caton Ave & E 7 St,40.647735834,-73.97367394
48 St & 5 Ave,40.646351,-74.009271
Dahill Rd & 12 Ave,40.646037,-73.980963
53 St & 2 Ave,40.647485137,-74.018827677
58 St & Pier 4,40.646475,-74.026081
Caton Ave & E 10 St,40.648749709,-73.970407486
44 St & 6 Ave,40.647105,-74.004483
Ft. Hamilton Pkwy & E 5 St,40.649037,-73.97673
47 St & 3 Ave,40.649143,-74.012384
52 St & 1 Ave,40.649292,-74.020105
7 Ave & 40 St,40.648270011,-73.99984467
E 8 St & Caton Ave,40.648055,-73.972432
45 St & 4 Ave,40.649145,-74.009486
Ft. Hamilton Pkwy & E 2 St,40.647981286,-73.97944128500001
48 St & 2 Ave,40.650176,-74.015606
Caton Ave & Argyle Rd,40.649756312,-73.967681408
Caton Ave & Argyle Rd,40.65,-73.97
5 Ave & 41 St,40.649960756,-74.005154014
Prospect Ave & Greenwood Ave,40.651745,-73.975988
44 St & 3 Ave,40.651371837,-74.011446595
Park Cir & East Dr,40.651566,-73.972212
41 St & 4 Ave,40.651339054,-74.007148385
Greenwood Ave & E 4 St,40.650739,-73.977739
2 Ave & 44 St,40.65230357303063,-74.01344954967499
Parade Pl & Crooke Ave,40.651847,-73.965248
5 Ave & 37 St,40.652657,-74.002356
Prospect Park SW & Greenwood Ave,40.652563,-73.972573
41 St & 3 Ave,40.652439594,-74.008824468
McDonald Ave & Vanderbilt St,40.651654,-73.981231
36 St & 4 Ave,40.654144,-74.00422
Prospect Ave & Vanderbilt St,40.653368,-73.976291
2 Ave & 43 St,40.652821302,-74.012877703
Bedford Ave & Clarkson Ave,40.655273199,-73.956379056
34 St & 5 Ave,40.654200435,-74.001294613
Prospect Park SW & Vanderbilt St,40.65482,-73.973217
2 Ave & 36 St,40.65708866668485,-74.00870203971863
36 St & 3 Ave,40.655716,-74.006664
2 Av & 37 St,40.656326,-74.009627
2 Ave & 39 St,40.655816793,-74.00995338
Clarkson Ave & Nostrand Ave,40.6555,-73.94975
Parkside Ave & Flatbush Ave,40.65563,-73.95968
Clarkson Ave & Utica Ave,40.65666,-73.93109
34 St & 4 Ave,40.655278,-74.003101
Prospect Park SW & 16 St,40.657265,-73.974165
New York Ave & Hawthorne St,40.657819033,-73.947394013
Prospect Park W & 20 St,40.656633,-73.983864
Winthrop St & Rogers Ave,40.65686,-73.95331
7 Ave & 22 St,40.658029,-73.989605
Flatbush Ave & Fenimore St,40.657794595,-73.960446119
29 St & 5 Ave,40.656986,-73.998194
Winthrop St & Schenectady Ave,40.65808,-73.93415
2 Ave & 32 St,40.659159422,-74.006601334
Albany Ave & Winthrop St,40.65791,-73.93967
11 Ave & Prospect Ave,40.65629,-73.977335
Winthrop St & Nostrand Ave,40.65707,-73.95005
19 St & 8 Ave,40.658489,-73.985543
Bedford Ave & Fenimore St,40.65815,-73.95674
24 St & 5 Ave,40.659434199,-73.994808793
30 St & 4 Ave,40.657754898,-74.001193523
Rutland Rd & E 45 St,40.66034,-73.93618
Windsor Pl & Howard Pl,40.65949055893896,-73.98013919591904
Nostrand Ave & Rutland Rd,40.659576058,-73.950420976
7 Ave & 20 St,40.659053,-73.98854
Maple St & Flatbush Ave,40.66026,-73.96045
Flatbush Ave & Lincoln Rd,40.66131,-73.96091
4 Ave & 26 St,40.660079,-73.998633
Midwood St & Utica Ave,40.661249161,-73.93166244
Maple St & Albany Ave,40.66155,-73.93974
Prospect Park SW & 10 Ave,40.659891725,-73.977305174
Maple St & New York Ave,40.66104,-73.94795
Windsor Pl & 8 Ave,40.660906,-73.983074
Bedford Ave & Maple St,40.66035,-73.95679
Rogers Ave & Lincoln Rd,40.661159515,-73.953603268
6 Ave & 21 St,40.66016,-73.990974
Lincoln Rd & Ocean Ave,40.6605,-73.9626
Schenectady Ave & Maple St,40.66178,-73.93445
Midwood St & Kingston Ave,40.66067,-73.94243
West Drive & Prospect Park West,40.661184669,-73.979277611
Sterling St & Nostrand Ave,40.663190842,-73.950733542
7 Ave & 17 St,40.66093779493168,-73.98680448532104
Sterling St & Bedford Ave,40.6627059,-73.9569115
21 St & 4 Ave,40.662584,-73.995554
E New York Ave & Troy Ave,40.66227,-73.93762
Rogers Ave & Sterling St,40.6630619,-73.9538746
17 St & 5 Ave,40.663493,-73.991007
Washington Ave & Empire Blvd,40.66314,-73.9605695
Flatbush Ave & Ocean Ave,40.663657,-73.963014
Sullivan Pl & Franklin Ave,40.66407983678161,-73.96025128666679
23 St & 3 Ave,40.662611,-73.998623
Prospect Park West & 8 St,40.66514681533792,-73.97637605667114
Empire Blvd & New York Ave,40.66404593,-73.947463632
14 St & 7 Ave,40.663935304,-73.983915329
Bedford Ave & Montgomery St,40.665816,-73.956934
Sullivan Pl & Bedford Ave,40.6642406,-73.9574686
4 Ave & 17 St,40.665507,-73.993037
Carroll St & Rochester Ave,40.66598,-73.9284
Kingston Ave & Montgomery St,40.66481,-73.94269
10 St & 7 Ave,40.66617465,-73.981858253
Crown St & Rogers Ave,40.66639,-73.95346
14 St & 5 Ave,40.666287,-73.98895053
Montgomery St & Franklin Ave,40.666439306870814,-73.9605563879013
3 Ave & 17 St,40.666168,-73.995549
Carroll St & Utica Ave,40.66619,-73.93162
Albany Ave & Carroll St,40.666741252,-73.93966841700001
New York Ave & Montgomery St,40.66509,-73.94824
6 Ave & 12 St,40.6663181,-73.9854617
6 Ave & 9 St,40.668184996,-73.983748913
16th St & 4th Ave,40.666197,-73.992466
Buffalo Ave & E New York Ave,40.666085601,-73.926037312
Schenectady Ave & President St,40.66732,-73.93398
Kingston Ave & Carroll St,40.66688323,-73.942407966
6 St & 7 Ave,40.6686627,-73.97988067
President St & Nostrand Ave,40.66811,-73.9505
10 St & 5 Ave,40.6686273,-73.98700053
Eastern Pkwy & Ralph Ave,40.66852,-73.92284
Carroll St & Franklin Ave,40.6679411,-73.9588
3 Ave & 14 St,40.6685455,-73.99333264
Eastern Pkwy & Rochester Ave,40.66846,-73.9282
Flatbush Ave & Eastern Pkwy,40.668757,-73.966438
Eastern Pkwy & Troy Ave,40.669261098,-73.936863422
3 St & Prospect Park West,40.668132,-73.97363831
Eastern Pkwy & Brooklyn Ave,40.669377446,-73.945237637
5 St & 6 Ave,40.6704836,-73.98208968
Union St & Bedford Ave,40.6691783,-73.9554162
12 St & 4 Ave,40.668644905,-73.990473509
10 St & 4 Ave,40.66967356370341,-73.98898908183764
Buffalo Ave & St Johns Pl,40.670081615,-73.92534709
Carroll St & Washington Ave,40.6686744,-73.9618148
Eastern Pkwy & Schenectady Ave,40.66874373,-73.933389187
Eastern Pkwy & Kingston Ave,40.66959,-73.94237
3 St & 7 Ave,40.67034781,-73.978318095
Eastern Pkwy & Nostrand Ave,40.66967,-73.9503
7 St & 5 Ave,40.6704922,-73.98541675
St Johns Pl & Howard Ave,40.66992,-73.92002
Eastern Pkwy & Franklin Ave,40.670776248,-73.957625628
10 St & 2 Ave,40.671907,-73.993612
Sterling Pl & Rochester Ave,40.671478391,-73.928314686
Eastern Pkwy & Washington Ave,40.671673298,-73.963250399
Bay St & Court St,40.671458006,-74.001402497
Sterling Pl & Schenectady Ave,40.6717062,-73.933821678
Troy Ave & Park Pl,40.67251,-73.93642
Sigourney St & Columbia St,40.67267243410948,-74.0087952464819
St. Johns Pl & Kingston Ave,40.671126723,-73.942445636
1 St & 6 Ave,40.672784,-73.979826
Park Pl & Thomas S. Boyland St,40.671552896,-73.914351225
Lincoln Pl & Nostrand Ave,40.67077,-73.9507
4 Ave & 9 St,40.670717478,-73.988555074
Sterling Pl & Ralph Ave,40.670959115,-73.922221899
Lincoln Pl & Classon Ave,40.6721683,-73.9609
St Johns Pl & Utica Ave,40.6705,-73.9308
Park Pl & Utica Ave,40.672400832,-73.930994153
Henry St & Bay St,40.672559142,-74.004935026
Albany Ave & Park Pl,40.67297,-73.93896
Garfield Pl & 8 Ave,40.6711978,-73.97484126
Dwight St & Van Dyke St,40.67363551341504,-74.01195555925369
Sterling Pl & New York Ave,40.67234,-73.94763
5 Ave & 3 St,40.6728155,-73.98352355
Prospect Pl & Howard Ave,40.6726439,-73.919852138
Sterling Pl & Bedford Ave,40.672688961,-73.954159379
7 St & 3 Ave,40.672540903,-73.989647388
Park Pl & Buffalo Ave,40.672043562,-73.925438523
St Johns Pl & Washington Ave,40.6737236,-73.9631611
Schenectady Ave & Prospect Pl,40.67351,-73.93363
Plaza St East & Flatbush Ave,40.673134,-73.969106
Plaza St West & Flatbush Ave,40.6750207,-73.97111473
Grand Army Plaza & Plaza St West,40.6729679,-73.97087984
Columbia St & Lorraine St,40.674852371,-74.007504225
Pacific St & Sackman St,40.67522,-73.9061
Kingston Ave & Park Pl,40.673164129,-73.941886187
Carroll St & 6 Ave,40.6740886,-73.9787282
St Marks Ave & Thomas S. Boyland St,40.67313,-73.91387
Pacific St & Thomas S. Boyland St,40.675680518,-73.914110065
Prospect Pl & Nostrand Ave,40.67425406,-73.950321198
3 St & 3 Ave,40.6750705,-73.98775226
4 Ave & 3 St,40.673688889,-73.98573637
St Marks Ave & Ralph Ave,40.673723102,-73.921899438
Park Pl & Franklin Ave,40.674187183,-73.956314802
St Marks Ave & Rochester Ave,40.67404,-73.92772
Underhill Ave & Lincoln Pl,40.673968315,-73.967126608
Clinton St & Centre St,40.67434,-74.00194698
Bergen St & Troy Ave,40.675215721,-73.935732603
Berkeley Pl & 7 Ave,40.675151587,-73.975169897
Wolcott St & Dwight St,40.6753274,-74.0100698
Bergen St & Mother Gaston Blvd,40.673827529,-73.908534765
Brooklyn Ave & Prospect Pl,40.67412,-73.94447
Carroll St & 5 Ave,40.6751622,-73.9814832
Bergen St & Saratoga Ave,40.67423,-73.91656
Bedford Ave & Bergen St,40.676368,-73.952918
Bergen St & Buffalo Ave,40.674718261,-73.925304413
Classon Ave & St Marks Ave,40.676513,-73.959431
Smith St & 9 St,40.6746957,-73.99785768
Court St & Nelson St,40.6763947,-73.99869893
Schenectady Ave & Pacific St,40.676919103,-73.933250904
Columbia St & W 9 St,40.676851034,-74.006501555
Henry St & W 9 St,40.6764189,-74.003182173
Van Sinderen Ave & Atlantic Ave,40.67621,-73.90351
Bergen St & Kingston Ave,40.67553556,-73.9413656
Van Brunt St & Wolcott St,40.6773429,-74.01275056
Van Brunt St & Van Dyke St,40.675970793,-74.014682412
Dean St & Rockaway Ave,40.67486,-73.91123
New York Ave & St Marks Ave,40.67514,-73.94716
President St & 4 Ave,40.676757,-73.983262
Pacific St & Ralph Ave,40.67607,-73.92171
Franklin Ave & St Marks Ave,40.675734639,-73.956190348
Dean St & Franklin Ave,40.67759206937376,-73.955637216568
3 St & Hoyt St,40.6777287,-73.99364123
Pacific St & Rochester Ave,40.676400542,-73.927474976
Prospect Pl & Underhill Ave,40.6769694,-73.96579
Clinton St & 4 Place,40.6783563,-74.00014502
Fulton St & Williams Ave,40.67709,-73.9008
Pacific St & Troy Ave,40.67686,-73.93607
Verona Pl & Fulton St,40.680484056,-73.947673917
7 Ave & Park Pl,40.6776147,-73.97324283
Pioneer St & Richards St,40.677731276,-74.009343147
Herkimer St & Eastern Pkwy,40.677300215,-73.908471704
Brooklyn Ave & Dean St,40.67669,-73.94437
Berkeley Pl & 6 Ave,40.6765304,-73.97846879
Coffey St & Conover St,40.677236,-74.015665
Coffey St & Ferris St,40.67818387977647,-74.0170168876648
Thomas S. Boyland St & Fulton St,40.67854,-73.91367
Pacific St & Nostrand Ave,40.6776,-73.94963
3 Ave & Carroll St,40.677061081,-73.986515045
Columbus Pl & Atlantic Ave,40.677288651,-73.922832966
Pacific St & Classon Ave,40.6791944,-73.9587903
Smith St & 3 St,40.6787242,-73.99599099
Pacific St & Utica Ave,40.6767,-73.93051
Bergen St & Vanderbilt Ave,40.679414153,-73.968015552
Van Sinderen Ave & Truxton St,40.6786,-73.90369
Prospect Pl & 6 Ave,40.6793307,-73.97519523
Pioneer St & Van Brunt St,40.679043,-74.011169
Somers St & Rockaway Ave,40.67872,-73.91105
Herkimer St & New York Ave,40.67955,-73.94709
Douglass St & 4 Ave,40.6792788,-73.98154004
Union St & 4 Ave,40.677183628,-73.982524157
Fulton St & Saratoga Ave,40.67853,-73.91642
Brevoort Pl & Bedford Ave,40.68012,-73.95362
Carroll St & Bond St,40.6786115,-73.99037292
Sumpter St & Fulton St,40.67923,-73.92588
Grand Ave & Bergen St,40.678045,-73.962408
1 Pl & Clinton St,40.681082368,-73.999317765
Lewis Ave & Fulton St,40.679852486,-73.93462956
Chauncey St & Stuyvesant Ave,40.68012,-73.93168
Bergen St & Carlton Ave,40.680092336223886,-73.97118045900022
Carlton Ave & Dean St,40.6809741,-73.9710097
Carlton Ave & St Marks Ave,40.67911856082165,-73.97176265716553
Richards St & Delavan St,40.6794327,-74.00785041
Somers St & Broadway,40.679439664,-73.904729605
Kingston Ave & Herkimer St,40.67890679,-73.94142771
Sterling Pl & 5 Ave,40.678970070475735,-73.97855266928671
MacDougal St & Rockaway Ave,40.68018,-73.91136
Macon St & Nostrand Ave,40.6809833854,-73.9500479759
Douglass St & 3 Ave,40.6802133,-73.98432695
Degraw St & 3 Ave,40.679796457,-73.984778762
Ralph Ave & Fulton St,40.679316759,-73.92194283
Lefferts Pl & Franklin Ave,40.680342423,-73.9557689392
Carroll St & Smith St,40.680611,-73.99475825
Fulton St & Utica Ave,40.6794268,-73.9298911
Chauncey St & Malcolm X Blvd,40.68044,-73.92842
Underhill Ave & Pacific St,40.680513978,-73.964643121
Lewis Ave & Decatur St,40.6814598,-73.934903
Albany Ave & Fulton St,40.679917574,-73.938452721
Commerce St & Van Brunt St,40.6812117,-74.00860912
Broadway & Furman Ave,40.68139,-73.90756
MacDonough St & Marcy Ave,40.68078,-73.94613
St Marks Pl & 4 Ave,40.68177810928762,-73.97988975048065
Thomas S. Boyland St & Marion St,40.6814658848122,-73.91415685415268
Hancock St & Bedford Ave,40.68216564,-73.95399026
Degraw St & Hoyt St,40.682071328,-73.990772367
Patchen Ave & Bainbridge St,40.681331873,-73.925751448
Fulton St & Irving Pl,40.68186,-73.959432
Clinton St & Union St,40.683200479,-73.997733355
Marcus Garvey Blvd & Macon St,40.682601,-73.938037
Bergen St & Flatbush Ave,40.680944723477296,-73.97567331790923
Rockaway Ave & Bainbridge St,40.683229566,-73.911695242
Wyckoff St & 3 Ave,40.682805181,-73.982629418
Chauncey St & Howard Ave,40.681593776,-73.919383526
Degraw St & Smith St,40.6829151,-73.99318208
Macon St & Patchen Ave,40.68374,-73.9261
MacDonough St & Malcolm X Blvd,40.682709813,-73.92935288
President St & Henry St,40.6828003,-73.99990419
Macon St & Lewis Ave,40.68282,-73.93488
Bushwick Ave & Furman Ave,40.68281,-73.90623
Halsey St & Tompkins Ave,40.682391524,-73.943979979
Bergen St & 4 Ave,40.68256425759694,-73.9798977971077
Thomas S. Boyland St & Macon St,40.684797049,-73.914907336
Putnam Ave & Nostrand Ave,40.68402,-73.94977
Hoyt St & Warren St,40.684355617,-73.988897443
Halsey St & Ralph Ave,40.68494,-73.92299
Monroe St & Classon Ave,40.6845683,-73.95881081
Butler St & Court St,40.6849894,-73.99440329
Hancock St & Malcolm X Blvd,40.68487,-73.9293
Fulton St & Waverly Ave,40.68323865460341,-73.96599590778351
Carroll St & Columbia St,40.6830456,-74.00348559
S Portland Ave & Hanson Pl,40.68539567,-73.97431458
Atlantic Ave & Fort Greene Pl,40.68382604,-73.97632328
Moffat St & Bushwick,40.68478632,-73.909162402
Pacific St & Nevins St,40.685234547,-73.982625246
Halsey St & Broadway,40.685696959,-73.915743828
Decatur St & Saratoga Ave,40.68336463,-73.917095304
Monroe St & Bedford Ave,40.6851443,-73.95380904
Warren St & Smith St,40.68542400997018,-73.99127773940563
Picnic Point,40.68512559515415,-74.02535319328308
Jefferson Ave & Patchen Ave,40.68609,-73.92628
Cambridge Pl & Gates Ave,40.68488,-73.96304
Henry St & Degraw St,40.6847514,-73.99917254
Hancock St & Stuyvesant Ave,40.68454,-73.9322
Fulton St & Clermont Ave,40.684153676,-73.969272256
Putnam Ave & Throop Ave,40.685140729,-73.941188216
Hanson Pl & Ashland Pl,40.68506807308177,-73.97790759801863
Eldert St & Bushwick Ave,40.686505437,-73.913210034
Bond St & Bergen St,40.6849668,-73.98620772
Macon St & Howard Ave,40.684506655,-73.919975519
Warren St & Court St,40.686371,-73.99383324
Madison St & Malcolm X Blvd,40.687118292,-73.930011392
Washington Ave & Greene Ave,40.686449409,-73.965586066
Columbia St & Degraw St,40.6859296,-74.00242364
Columbia St & Kane St,40.68763155,-74.0016256
Lewis Ave & Madison St,40.686312,-73.935775
Cumberland St & Lafayette Ave,40.68753406,-73.97265183
Central Ave & Decatur St,40.688177466,-73.907890201
Monroe St & Tompkins Ave,40.686203,-73.944694
3 Ave & Schermerhorn St,40.68683208,-73.9796772
Nevins St & Schermerhorn St,40.687462807,-73.981794357
Yankee Ferry Terminal,40.68706579875912,-74.01675585121666
Broadway & Hancock St,40.68663,-73.9168
Bergen St & Smith St,40.6867443,-73.99063168
Pacific St & Smith St,40.687880939612775,-73.98939281702042
Dean St & Hoyt St,40.6864442,-73.98759104
Putnam Ave & Ralph Ave,40.68705,-73.92338
Lafayette Ave & Classon Ave,40.689052105,-73.960280657
Lexington Ave & Classon Ave,40.68676793,-73.95928168
Congress St & Clinton St,40.68825516598005,-73.99545192718506
Kane St & Clinton St,40.6861758,-73.99645295
Stuyvesant Ave & Gates Ave,40.688452125,-73.933131099
Clermont Ave & Lafayette Ave,40.68764484,-73.96968902
DeKalb Ave & Vanderbilt Ave,40.68940747,-73.96885458
Monroe St & Marcus Garvey Blvd,40.686722,-73.938988
Lafayette Ave & Ft Greene Pl,40.68700231292619,-73.97664964199066
Halsey St & Evergreen Ave,40.688783646,-73.912148237
Marcy Ave & Lafayette Ave,40.6900815,-73.947915
Bond St & Fulton St,40.68945992,-73.983120799
Schermerhorn St & Hoyt St,40.6886263,-73.9851911
Broadway & Madison St,40.68822,-73.91966
Court St & State St,40.690213442,-73.992070436
Monroe St & Patchen Ave,40.68814,-73.92693
Lafayette Ave & St James Pl,40.68851534,-73.9647628
Congress St & Hicks St,40.6893952,-73.9995126
Lexington Ave & Stuyvesant Ave,40.68973,-73.93353
Wilson Ave & Moffat St,40.68906,-73.90506
Greene Ave & Throop Ave,40.689495564,-73.942029357
DeKalb Ave & Hudson Ave,40.689888,-73.981013
Ashland Pl & Dekalb Ave,40.690065,-73.978776
Jefferson Ave & Evergreen Ave,40.690011382,-73.914573908
Greene Ave & Nostrand Ave,40.688360214,-73.951030374
Kosciuszko St & Nostrand Ave,40.69072549,-73.95133465
State St & Smith St,40.68917,-73.9886
Grove St & Broadway,40.690487742,-73.923517585
DeKalb Ave & Franklin Ave,40.690630436,-73.957563877
Henry St & Atlantic Ave,40.69089272,-73.99612349
Lewis Ave & Greene Ave,40.68995,-73.9365
DeKalb Ave & S Portland Ave,40.689823747,-73.974828243
Washington Park,40.692066908,-73.973832369
Central Ave & Covert St,40.689391851,-73.909627557
Kosciuszko St & Tompkins Ave,40.69128258,-73.9452416
Albee Square W & Fulton St,40.69068758614303,-73.98347854614258
Madison St & Evergreen Ave,40.69122,-73.91693
Schermerhorn St & Court St,40.6910363748993,-73.99201065301895
Van Buren St & Broadway,40.692,-73.92617
Lafayette Ave & Stuyvesant Ave,40.692036986,-73.932273507
Knickerbocker Ave & Moffat St,40.690434,-73.903737
Willoughby St & Ashland Pl,40.69178,-73.97877
Soissons Landing,40.692317,-74.014866
Central Ave & Weirfield St,40.690623045,-73.911913514
Duffield St & Willoughby St,40.69221589,-73.9842844
Lawrence St & Willoughby St,40.69231534,-73.986436486
Bushwick Ave & Linden St,40.69146,-73.92146
Clinton St & Joralemon St,40.69239502,-73.99337909
Broadway & Kosciuszko St,40.69329,-73.92852
Willoughby Ave & Hall St,40.691933751,-73.965209842
Atlantic Ave & Furman St,40.69169414,-74.000062585
Wyckoff Ave & Cooper Ave,40.69338,-73.90061
Lewis Ave & Kosciuszko St,40.69237074,-73.93705428
Adelphi St & Myrtle Ave,40.692739725,-73.972486019
Knickerbocker Ave & Halsey St,40.693021417,-73.908263445
Willoughby St & Fleet St,40.691935897,-73.9811759
Myrtle Ave & Fleet Pl,40.693688273,-73.981979609
Central Ave & Woodbine St,40.692996025,-73.916042328
Willoughby Ave & Walworth St,40.69331716,-73.95381995
Fulton St & Adams St,40.69241829257847,-73.98949474096298
Johnson St & Brooklyn Bridge Blvd,40.694962859,-73.989262819
Bushwick Ave & Harman St,40.69356,-73.92524
Henry St & Remsen St,40.69400964865994,-73.99465128779411
Hicks St & Montague St,40.69512845,-73.99595065
Malcolm X Blvd & DeKalb Ave,40.6938,-73.93114
Clinton Ave & Myrtle Ave,40.693261,-73.968896
Norman St & Wyckoff Ave,40.69517,-73.90311
Pulaski St & Marcus Garvey Blvd,40.693425059,-73.939802647
Myrtle Ave & St Edwards St,40.69327018,-73.97703874
Knickerbocker Ave & Hancock St,40.693862796,-73.909945965
Putnam Ave & Knickerbocker Ave,40.69545,-73.91164
Willoughby Ave & Tompkins Ave,40.69425403,-73.94626915
Johnson St & Gold St,40.69474881,-73.98362464
Menahan St & Central Ave,40.69543,-73.9196
Cadman Plaza E & Tillary St,40.69597683,-73.99014892
Montague St & Clinton St,40.6942715,-73.9923272
Bushwick Ave & Dekalb Ave,40.694979548,-73.928262949
Emerson Pl & Myrtle Ave,40.69363137,-73.96223558
Cypress Ave & St Felix Ave,40.69559,-73.89927
Suydam St & Broadway,40.69544,-73.93223
Stuyvesant Ave & Hart St,40.69465,-73.9343
Clermont Ave & Park Ave,40.695698738,-73.971269131
Irving Ave & Halsey St,40.694699526,-73.906707644
Throop Ave & Myrtle Ave,40.696308851,-73.943745971
Park Ave & St Edwards St,40.69608941,-73.97803415
Myrtle Ave & Marcy Ave,40.69539817,-73.94954908
Nostrand Ave & Myrtle Ave,40.69527008,-73.95238108
Jay St & Tech Pl,40.695025086,-73.987132072
Central Ave & Himrod St,40.696701884,-73.922903895
Franklin Ave & Myrtle Ave,40.694546087246025,-73.95801365375519
Pierrepont St & Monroe Pl,40.69535693320225,-73.99344027042389
St Felix Ave & 61 St,40.69715,-73.8936
Cedar St & Evergreen Ave,40.69671,-73.92807
Washington Ave & Park Ave,40.69610226,-73.96751037
Summerfield St & Cypress Ave,40.696550012,-73.900664091
Myrtle Ave & Lewis Ave,40.69681963,-73.93756926
Carlton Ave & Park Ave,40.69580705,-73.97355569
Carlton Ave & Flushing Ave,40.697787,-73.973736
Putnam Ave & Wyckoff Ave,40.69811,-73.90904
Hancock St & Wyckoff Ave,40.6972,-73.90674
Linden St & Knickerbocker Ave,40.69714,-73.91566
Clinton St & Tillary St,40.696228623,-73.991452694
Cedar St & Myrtle Ave,40.697842,-73.926241
Brooklyn Bridge Park - Pier 2,40.698458,-73.997178
Seneca Ave & Decatur St,40.69723,-73.89811
Willoughby Ave & Myrtle Ave,40.69757,-73.93098
Clinton Ave & Flushing Ave,40.69794,-73.96986848
Flushing Ave & Vanderbilt Ave,40.69795031569544,-73.97077560424805
Cypress Ave & George St,40.69812,-73.90271
Park Ave & Marcus Garvey Blvd,40.698617,-73.941342
Irving Ave & Palmetto St,40.698,-73.9127
Concord St & Bridge St,40.69766564,-73.98476437
Nassau St & Duffield St,40.698458433,-73.983377695
Greene Av & Myrtle Av,40.698568,-73.918877
Clark St & Henry St,40.69760127,-73.99344559
Central Ave & Starr Street,40.700024843,-73.92844581599999
Forest Ave & Summerfield St,40.69922,-73.89795
Stephen St & Seneca Ave,40.6988,-73.9007
Melrose St & Broadway,40.697481,-73.935877
Dock 72 Way & Market St,40.69985,-73.97141
Madison St & Cypress Ave,40.70068,-73.90742
Nassau St & Navy St,40.698418617,-73.980801702
Sands St Gate,40.699569,-73.979827
Myrtle Ave & Linden St,40.69943,-73.91337
Myrtle Ave & Grove St,40.69905,-73.91516
Union Ave & Wallabout St,40.70029511,-73.95032283
Sands St & Jay St,40.700119,-73.9862
Cadman Plaza E & Red Cross Pl,40.69991755,-73.98971773
Adams St & Prospect St,40.70076308326151,-73.98869812488556
Stockholm St & Wilson Ave,40.699313521,-73.92303133
Columbia Heights & Cranberry St,40.700401545,-73.995496273
61 St & 60 Ln,40.70055,-73.8943
Central Ave & Melrose St,40.70112,-73.93039
Centre St & Seneca Ave,40.69969,-73.9022
Beaver St & Fayette St,40.700952411,-73.93905282
5 St & Market St,40.6999974843885,-73.97440128028393
South St & Whitehall St,40.70122128,-74.01234218
Wyckoff Ave & Gates Ave,40.699871408829885,-73.91171872615814
Tompkins Ave & Hopkins St,40.699638367,-73.947114825
Bridge St & York St,40.70133448066992,-73.98471236228943
Irving Ave & Harman St,40.701152205,-73.918085456
Henry St & Middagh St,40.7003,-73.991581
Myrtle Ave & 65 St,40.70117,-73.8904
Cooper Ave & 65 Pl,40.69953,-73.88873
Wilson Ave & Troutman St,40.701683164,-73.927541614
71 Ave & Myrtle Ave,40.70067,-73.89907
Evergreen Ave & Noll St,40.70106,-73.93318
Madison St & Seneca Ave,40.701782346,-73.906301737
Broadway & Whipple St,40.7016657,-73.9437303
Bus Slip & State St,40.701907,-74.013942
Menahan St & Wyckoff Ave,40.70114851,-73.914148569
Front St & Jay St,40.702461,-73.986842
Jay St & York St,40.70140317257725,-73.98672670125961
Pearl St & York St,40.701239586,-73.987810612
Irving Ave & DeKalb Ave,40.7027,-73.92095
Old Fulton St,40.702696204,-73.993755817
Dock St & Front St,40.702709,-73.99253
Cypress Hills St & Otto Rd,40.70204,-73.89288
George St & Wilson Ave,40.702997,-73.92997
Catalpa Ave & Woodward Ave,40.70229,-73.90145
Bushwick Ave & Forrest St,40.700878859,-73.936520338
South St & Broad St,40.70188858913366,-74.01089876890182
Cypress Ave & Palmetto St,40.70157340873792,-73.90876293182373
Front St & Gold St,40.702337623,-73.98250258
Wyckoff Av & Stanhope St,40.703545,-73.917775
Main St & Plymouth St,40.70378167354831,-73.99073392152786
Suydam St & Knickerbocker Ave,40.702026844,-73.923811913
Fresh Pond Rd & 69 Ave,40.703179479,-73.895447969
Central Ave & Flushing Ave,40.702831,-73.9333
South St & Gouverneur Ln,40.70355377,-74.00670227
Madison St & Woodward Ave,40.70408,-73.90408
Humboldt St & Varet St,40.7031724,-73.940636
Broadway & Battery Pl,40.70463334,-74.01361706
Whitehall St & Bridge St,40.70366170524135,-74.0131813287735
Broad St & Bridge St,40.70365182,-74.01167797
Menahan St & Seneca Ave,40.70461,-73.91054
Lorimer St & Broadway,40.70411791,-73.94818595
Bridge St & Water St,40.702458978,-73.984753728
Hart St & Wyckoff Ave,40.704876,-73.919911
65 St & Otto Rd,40.704046488,-73.89111495
Knickerbocker Ave & George St,40.704425,-73.92836
60 Pl & 67 Ave,40.705025554,-73.899762511
White St & Moore St,40.704508,-73.9351
Railroad Ave & Kay Ave,40.70514807698391,-73.97078096866608
Pearl St & Hanover Square,40.7047177,-74.00926027
Old Slip & South St,40.70336686695866,-74.007867872715
Water St & Gouverneur Ln,40.70469667894968,-74.00803416967392
Onderdonk Ave & Gates Ave,40.70413,-73.90737
McKibbin St & Manhattan Ave,40.705072403,-73.94408989
Little West St & 1 Pl,40.70569254,-74.01677685
Harman St & Seneca Ave,40.70577,-73.91292
Boerum St & Broadway,40.70538077,-73.94976519
Willoughby Ave & Wyckoff Ave,40.705614,-73.92153
Knickerbocker Ave & Thames St,40.70539,-73.92976
Kent Ave & Division Ave,40.706563674670925,-73.9683187007904
Water St &  Fletcher St,40.706410755236135,-74.00559738278389
Madison St & Forest Ave,40.705558419,-73.902511477
Bushwick Ave & McKibbin St,40.705517,-73.93936
Broadway & Morris St,40.706143141,-74.013197541
Menahan St & Onderdonk Ave,40.70553,-73.9096
Leonard St & Boerum St,40.70583339,-73.94644578
Suydam St & St. Nicholas Ave,40.70636,-73.91945
Division Ave & Hooper St,40.706991196,-73.95443058
Wyckoff Av & Jefferson St,40.707165,-73.923711
Irving Ave & Jefferson St,40.705415368,-73.925455093
67 Ave & Fresh Pond Rd,40.70575,-73.89676
64 St & Woodbine St,40.70809,-73.89549
McKibbin St & Bogart St,40.706237,-73.933871
John St & William St,40.70862144,-74.00722156
Maiden Ln & Pearl St,40.70706456,-74.00731853
William St & Pine St,40.707755566,-74.00886333
Cliff St & Fulton St,40.70838,-74.00495
Fairview Ave & Linden St,40.70692575,-73.906159043
Montrose Ave & Bushwick Ave,40.70767788,-73.94016171
Greenwich St & Rector St,40.70806582380646,-74.0135595202446
Woodward Ave & Harman St,40.70793,-73.91092
Scholes St & Lorimer St,40.708323,-73.948732
Jefferson St & Cypress Ave,40.70907,-73.92157
Division Ave & Marcy Ave,40.70708701,-73.95796783
Harrison Pl & Porter Ave,40.70686,-73.92851
Bedford Ave & S 9 St,40.708408475,-73.964136958
Peck Slip & South St,40.7075188830923,-74.00108054280281
60 Pl & Linden St,40.708808184,-73.901654959
Waterbury St & Stagg St,40.710284591,-73.93742609
White St & Johnson Ave,40.707157254,-73.935819864
Liberty St & Broadway,40.70905623,-74.01043382
Greene Ave & Grandview Ave,40.709697,-73.907856
Scholes St & Manhattan Ave,40.70870368,-73.9448625
West Thames St,40.70834698,-74.01713445
South End Ave & Albany St,40.71,-74.02
Onderdonk Ave & Dekalb Ave,40.70863,-73.91497
Willoughby Ave & Onderdonk Ave,40.709790111,-73.917301536
Stagg St & Union Ave,40.70877084,-73.95095259
Stewart Ave & Johnson Ave,40.70869,-73.92587
S 5 Pl & S 5 St,40.710451,-73.960876
Broadway & Roebling St,40.70926106,-73.960624099
Catherine St & Monroe St,40.71117444,-73.99682619
Palmetto St & Traffic Ave,40.709240317,-73.894413233
Broadway & Kent Ave,40.710888,-73.968329
Spruce St & Nassau St,40.71146364,-74.00552427
Fulton St & William St,40.709987998,-74.006684422
Spruce St & Gold St,40.7103231,-74.0043228
60 Pl & Bleecker St,40.71107,-73.903
Bushwick Ave & Stagg St,40.709934473,-73.94008708
Albany St & Greenwich St,40.709267,-74.013247
Stanhope St & Fairview Ave,40.70998,-73.91116
Leonard St & Maujer St,40.710283518,-73.946987391
S 4 St & Rodney St,40.70934,-73.95608
Pike St & Monroe St,40.71173107,-73.99193043
South St & Pike St,40.70991806921533,-73.99161100387573
Metropolitan Ave & 65 Ln,40.71225,-73.89111
Broadway & Berry St,40.71036129922581,-73.96530389785767
St James Pl & Pearl St,40.71117416,-74.00016545
Grove St & Fresh Pond Rd,40.71032,-73.89955
Stagg St & Morgan Ave,40.710681,-73.93372
Fulton St & Broadway,40.711066,-74.009447
Bleecker St & Forest Ave,40.710682034,-73.905258298
Graham Ave & Grand St,40.711863,-73.944024
Cherry St,40.71219906,-73.97948148
West St & Liberty St,40.711444,-74.014847
Hope St & Union Ave,40.71167351,-73.95141312
Madison St & Clinton St,40.71269042,-73.98776323
Clinton St & Cherry St,40.711471394469264,-73.98672603070736
S 4 St & Roebling St,40.71,-73.96
Market St & Cherry St,40.710776806,-73.994012952
65 Ln & Metropolitan Ave,40.7123,-73.89397
S 4 St & Wythe Ave,40.712927341,-73.965954661
Centre St & Chambers St,40.71273266,-74.0046073
Powers St & Olive St,40.713209033,-73.939094186
Barclay St & Church St,40.71291224,-74.01020234
Vesey St & Church St,40.71222,-74.010472
Amory Ct & Metropolitan Ave,40.71298182,-73.909664273
Manhattan Ave & Devoe St,40.713532,-73.9459867
Flushing Ave & Woodward Ave,40.71246,-73.91873
Metropolitan Ave & Flushing Ave,40.713403821,-73.915610909
Rutgers St & Henry St,40.71332151208186,-73.99009689688683
S 3 St & Bedford Ave,40.71260486,-73.96264403
Driggs Ave & S 2 St,40.71235168,-73.960698247
St James Pl & Oliver St,40.71307916,-73.99851193
Metropolitan Ave & Vandervoort Ave,40.714281678,-73.933231354
Reade St & Broadway,40.714780331,-74.005448818
Eliot Ave & 60 Ln,40.713868141,-73.903069854
Bushwick Ave & Powers St,40.71247661,-73.94100005
53 St & Flushing Ave,40.71435,-73.91405
Devoe St & Lorimer St,40.713394523,-73.949000001
Madison St & Montgomery St,40.713154554,-73.984645486
Grand St & Havemeyer St,40.71286844,-73.95698119
Roebling St & N 4 St,40.71469,-73.95739
Pike St & E Broadway,40.71406667,-73.99293911
Forsyth St & Canal St,40.715825677,-73.994258165
Division St & Bowery,40.714193,-73.996732
Market St & Henry St,40.71310702305908,-73.99446353316307
Metropolitan Ave & Stewart Ave,40.71401,-73.92793
S 2 St & Kent Ave,40.71,-73.97
Centre St & Worth St,40.71494807,-74.00234482
Fresh Pond Rd & Eliot Ave,40.71453,-73.90105
Devoe St & Morgan Ave,40.713811,-73.93515
Park Pl & Church St,40.713619351,-74.00923562
Warren St & W Broadway,40.71473993,-74.00910627
Murray St & Greenwich St,40.71485150526252,-74.01122331619263
56 St & Arnold Ave,40.71484,-73.909
Graham Ave & Conselyea St,40.715143,-73.944507
Henry St & Grand St,40.714211,-73.981095
Vesey Pl & River Terrace,40.7153379,-74.01658354
Metropolitan Ave & Meeker Ave,40.71413311,-73.95234386
Union Ave & Jackson St,40.7160751,-73.952029
Clinton St & Grand St,40.71559509,-73.9870295
Canal St & Rutgers St,40.71427487,-73.98990025
Metropolitan Ave & Bedford Ave,40.71534825,-73.96024116
60 Ave & Fresh Pond Rd,40.716951013,-73.902015924
Sharon St & Olive St,40.71534162042448,-73.93865078687668
Stanton St & Mangin St,40.717824578,-73.976259828
West St & Chambers St,40.71754834,-74.01322069
Murray St & West St,40.714631915,-74.012319803
Jackson St & Leonard St,40.716364384,-73.948545575
Bialystoker Pl & Delancey St,40.71622644,-73.98261206
Grand St & Samuel Dickstein Plaza,40.71511871996496,-73.98417055606842
N 7 St & Driggs Ave,40.72,-73.96
Allen St & Hester St,40.71605866,-73.99190759
Orchard St & Grand St,40.717318403855785,-73.99067759513855
Wythe Ave & Metropolitan Ave,40.716887,-73.963198
Bayard St & Baxter St,40.71602118,-73.99974372
Walker St & Baxter St,40.717411,-73.999573
Morgan Ave & Maspeth Ave,40.716657,-73.93637
Hudson St & Reade St,40.71625008,-74.0091059
Leonard St & Church St,40.717571,-74.005549
Duane St & Hudson St,40.717160463,-74.009370446
Church St & Worth St,40.71688538495366,-74.00650128722191
60 St & 60 Rd,40.71592232709503,-73.90601366758347
Withers St & Kingsland Ave,40.7177248,-73.940557122
Columbia St & Rivington St,40.71739973,-73.98016555
River Ter & Warren St,40.71759894980997,-74.01587963104248
Grand Ave & 55 St,40.718913078,-73.914267182
Frost St & Meeker Ave,40.71766197083994,-73.94880026578903
Norfolk St & Broome St,40.7172274,-73.98802084
Berry St & N 8 St,40.719111323,-73.958610892
N 6 St & Bedford Ave,40.71745169,-73.95850939
Grand St & Elizabeth St,40.718822,-73.99596
Forsyth St & Grand St,40.717723846,-73.993251443
Kent Ave & Grand St,40.72,-73.97
Lispenard St & Broadway,40.71939226,-74.00247214
63 St & 59 Dr,40.718463302,-73.901365399
Harrison St & Hudson St,40.71870987,-74.0090009
59 St & 59 Rd,40.717841506,-73.908534408
Graham Ave & Withers St,40.716904283,-73.944764256
Graham Ave & Herbert St,40.71929301,-73.94500379
Rivington St & Ridge St,40.71850211,-73.98329859
Pitt St & Stanton St,40.71926081,-73.98178024
Page Pl & Grand Ave,40.71798,-73.91818
Union Ave & N 12 St,40.719306827,-73.952435732
Driggs Ave & N 9 St,40.71816969454208,-73.95520135760307
Allen St & Rivington St,40.72019576,-73.98997825
Delancey St & Eldridge St,40.719439983,-73.991546512
N 5 St & Wythe Ave,40.718278766,-73.961363196
Howard St & Lafayette St,40.71910537,-73.99973337
Lafayette St & Grand St,40.72028,-73.99879
Franklin St & W Broadway,40.71911552,-74.00666661
6 Ave & Walker St,40.7197920901383,-74.0052238852195
60 Pl & Flushing Ave,40.71988,-73.90556
Richardson St & N Henry St,40.71907891179564,-73.94223690032959
Frost St & Debevoise Ave,40.71882,-73.93948
Avenue D & E 3 St,40.72082834,-73.97793172
E Houston St & Columbia St,40.71978635452822,-73.97871628403664
57 St & Grand Ave,40.719151258,-73.912347674
Bayard St & Leonard St,40.71915571696044,-73.94885390996933
Manhattan Av & Leonard St,40.72084,-73.94844
Suffolk St & Stanton St,40.720597148,-73.985305548
Stanton St & Norfolk St,40.720747,-73.986274
N 10 St & Berry St,40.72,-73.96
N 12 St & Bedford Ave,40.72079821,-73.95484712
Rivington St & Chrystie St,40.721240401,-73.991999865
Forsyth St & Broome St,40.71893904,-73.99266288
Kenmare St & Elizabeth St,40.72054,-73.9949
N 5 St & Northside Piers,40.719876,-73.963865
N Moore St & Hudson St,40.71996118117138,-74.00844320654869
Greenwich St & Hubert St,40.721319,-74.010065
North Moore St & Greenwich St,40.72019521437465,-74.0103006362915
Grand Ave & 58 Ave,40.72098,-73.90701
Engert Ave & McGuinness Blvd,40.721624732,-73.945454478
Monitor St & Meeker Ave,40.721226,-73.941845
E 2 St & Avenue C,40.7208736,-73.98085795
Driggs Ave & Lorimer St,40.72179134,-73.9504154
Allen St & Stanton St,40.722055,-73.989111
Kent Ave & N 7 St,40.72036775298455,-73.96165072917938
N 11 St & Kent Ave,40.72248188638219,-73.95921930670738
Cleveland Pl & Spring St,40.722103786686034,-73.99724900722504
Grand St & Greene St,40.72170005235607,-74.00238141417502
6 Ave & Canal St,40.72243797,-74.00566443
Fresh Pond Rd & Flushing Ave,40.721406221,-73.9029423
Morgan Ave & Lombardy St,40.72226,-73.93889
Ave D & E 8 St,40.72368361,-73.97574813
E 6 St & Avenue D,40.722280264,-73.976617455
Washington St & Laight St,40.72231,-74.0106
57 Rd & 59 St,40.72249,-73.90854
57 Rd & 58 St,40.72235,-73.91215
E 2 St & Avenue B,40.722078681,-73.983500838
E 4 St & Ave B,40.723463893,-73.983109355
N 15 St & Wythe Ave,40.724055,-73.955736
Stanton St & Chrystie St,40.722271681,-73.991357565
Mercer St & Spring St,40.72362738,-73.99949601
Laight St & Hudson St,40.72185379,-74.00771779
56 Dr & 61 St,40.72368,-73.90458
Driggs Ave & N Henry St,40.72325,-73.94308
E 7 St & Ave C,40.72412944090093,-73.97901266813278
E 5 St & Avenue C,40.72299208,-73.97995466
58 St & 56 Dr,40.72419,-73.91244
Bedford Ave & Nassau Ave,40.72311651,-73.95212324
Leonard St & Nassau Ave,40.724025607,-73.949825048
E 3 St & 1 Ave,40.72467721,-73.98783413
E 2 St & Avenue A,40.723196626,-73.985870838
Wythe Ave & N 13 St,40.72,-73.96
Mott St & Prince St,40.72317958,-73.99480012
Lafayette St & Jersey St,40.72456089,-73.99565293
W Broadway & Spring St,40.72494672359416,-74.00165855884552
West Broadway & Watts St,40.72323,-74.00314
Grand Ave & Remsen Pl,40.723544121,-73.899813533
Van Dam St & Meeker Ave,40.72532,-73.9368
Avenue D & E 12 St,40.72580614,-73.97422494
Avenue D & E 10 St,40.725129366,-73.975162148
Watts St & Greenwich St,40.72405549,-74.00965965
56 Dr & 59 St,40.72403,-73.90853
55 Dr & Maurice Ave,40.7261,-73.90917
Nassau Ave & Russell St,40.72557,-73.94434
E 6 St & Avenue B,40.724611282,-73.982004404
E 7 St & Ave B,40.7251285241158,-73.98131668567657
E 1 St & 1 Ave,40.72335597960796,-73.98864984512329
E 2 St & 2 Ave,40.72502876,-73.99069656
E 4 St & 2 Ave,40.7262807,-73.98978041
Greene St & Prince St,40.72511734422387,-73.99930492043495
6 Ave & Broome St,40.72431,-74.00473
61 St & Borden Ave,40.72558,-73.90417
63 St & Borden Ave,40.73,-73.9
Kingsland Ave & Nassau Ave,40.72577,-73.94173
E 9 St & Avenue C,40.72521311,-73.97768752
E 12 St & Ave C,40.727243,-73.976831
Nassau Ave & Newell St,40.724793673,-73.947645426
E 5 St & Ave A,40.72479007746337,-73.98430064320564
E 7 St & Avenue A,40.726132035,-73.983634591
St Marks Pl & 1 Ave,40.72779126,-73.98564945
1 Ave & E 6 St,40.72633085971696,-73.98616880178452
Banker St & Meserole Ave,40.726051927,-73.956161499
Great Jones St,40.727405787,-73.994027615
E 1 St & Bowery,40.72486122254819,-73.99213135242462
W Broadway & W Houston St,40.726378,-74.000472
Spring St & Hudson St,40.72583996792375,-74.0076532959938
N Henry St & Norman Ave,40.7277,-73.94395
E 10 St & Avenue A,40.72740794,-73.98142006
E 11 St & Avenue B,40.72746420692392,-73.97950418293476
Meserole Ave & Manhattan Ave,40.72708584,-73.95299117
Norman Ave & Leonard St,40.73,-73.95
St Marks Pl & 2 Ave,40.7284186,-73.98713956
E 6 St & 2 Ave,40.72737869323223,-73.98840844631195
Mercer St & Bleecker St,40.72706363348306,-73.99662137031554
Bleecker St & Crosby St,40.726156,-73.995102
MacDougal St & Prince St,40.72710258,-74.00297088
King St & Varick St,40.727526188,-74.005055904
64 St & 53 Dr,40.728999734,-73.901341319
Pier 40 - Hudson River Park,40.7277140777778,-74.01129573583603
Ave A & E 11 St,40.72854745023944,-73.98175925016403
Calyer St & Guernsey St,40.72755807335852,-73.95505852997303
Cooper Square & Astor Pl,40.72951496224949,-73.99075269699097
E 5 St & Cooper Sq,40.72769,-73.990993
Sullivan St & Washington Sq,40.730124474,-73.99897635
Thompson St & Bleecker St,40.72840059450829,-73.99968780577183
LaGuardia Pl & W 3 St,40.72917025,-73.99810231
Greenwich St & W Houston St,40.728846,-74.008591
Maurice Ave & 53 Dr,40.73028,-73.90421
E 14 St & Avenue B,40.729430199,-73.977864027
Calyer St & Jewel St,40.72984,-73.94839
E 10 St & 2 Ave,40.72970805644994,-73.9865979552269
E 11 St & 1 Ave,40.72953837,-73.98426726
Milton St & Franklin St,40.72906,-73.95779
Greenpoint Ave & West St,40.73,-73.96
Washington Pl & Broadway,40.72903917,-73.99404649
Washington Square E,40.730262876,-73.996048689
University Pl & E 8 St,40.73143724085228,-73.99490341544151
Carmine St & 6 Ave,40.73038599,-74.00214988
Ave C & E 16 St,40.729787469,-73.974554658
Morton St & Washington St,40.73115,-74.00887
1 Ave & E 16 St,40.73221853,-73.98165557
E 13 St & Avenue A,40.72966729392978,-73.98067966103554
E 14 St & 1 Ave,40.731672049,-73.98288703
Ave A & E 14 St,40.729984999,-73.980594873
Greenpoint Ave & Manhattan Ave,40.73026,-73.95394
Kent St & McGuinness Blvd,40.731267333,-73.95158124
E 12 St & 3 Ave,40.732416153,-73.988877892
Lafayette St & E 8 St,40.73020660529954,-73.99102628231049
4 Ave & E 12 St,40.732647,-73.99011
E 11 St & 3 Ave,40.73127,-73.98849
India St Pier,40.731734785883454,-73.9612390102593
MacDougal St & Washington Sq,40.73226398,-73.99852205
Barrow St & Hudson St,40.73172428,-74.00674436
7 Ave S & Bleecker St,40.73213896287381,-74.00363802909851
E 13 St & 2 Ave,40.73153937464073,-73.9853024482727
India St & Manhattan Ave,40.73232194,-73.9550858
Washington Pl & 6 Ave,40.732173324,-74.000104666
Christopher St & Greenwich St,40.73291553,-74.00711384
W 10 St & Washington St,40.73342399437081,-74.00851495563984
Washington St & Barrow St,40.73191132323174,-74.008769094944
Greenpoint Ave & Monitor St,40.73224,-73.94383
1 Ave & E 18 St,40.733893991,-73.980549812
Stuyvesant Walk & 1 Av Loop,40.732339777151054,-73.97898383438587
Green St & McGuinness Blvd,40.73396,-73.95204
E 15 St & 3 Ave,40.734327793,-73.98769033
Huron St & Franklin St,40.73266,-73.95826
E 9 St & 5 Ave,40.73275887045087,-73.99581670761108
W 4 St & 7 Ave S,40.733942628,-74.002875447
Tyler Ave & Maurice Ave,40.73392868,-73.901325822
Van Dam St & Greenpoint Ave,40.73443564069459,-73.93790781497955
E 20 St & FDR Dr,40.733208626522426,-73.9756813647
E 17 St & 2 Ave,40.73431166276575,-73.98372530937195
Eagle St & Manhattan Ave,40.735138655,-73.954951406
Broadway & E 14 St,40.73454567,-73.99074142
University Pl & E 14 St,40.734814,-73.992085
W 11 St & 6 Ave,40.73532427,-73.99800419
Greenwich Ave & Charles St,40.735238,-74.000271
Bradley Ave & Greenpoint Ave,40.73565914819229,-73.93478840589523
Greenwich St & Perry St,40.73498,-74.00697
Perry St & Bleecker St,40.73535398,-74.00483091
Bank St & Hudson St,40.736493111,-74.006110907
51 Ave & 61 St,40.73568,-73.90387
E 23 St & 1 Ave,40.736581445,-73.978271127
E 19 St & 3 Ave,40.73624527,-73.98473765
E 16 St & Irving Pl,40.735367055605394,-73.98797392845154
Franklin St & Dupont St,40.73564,-73.95866
W 13 St & 5 Ave,40.735480189,-73.994522452
Perry St & Greenwich Ave,40.735918,-74.000939
64 St & 51 Ave,40.73577,-73.90184
50 Ave & 65 St,40.73707,-73.90077
Bank St & Washington St,40.7361967,-74.00859207
E 20 St & 2 Ave,40.73587678,-73.98205027
E 22 St & 2 Ave,40.736686826,-73.980968118
McGuinness Blvd & Eagle St,40.73555,-73.95284
E 17 St & Broadway,40.73704984,-73.99009296
43 St & 50 Ave,40.737978101,-73.922775745
W 15 St & 6 Ave,40.738046142482766,-73.99642959237099
36 St & Hunters Point Ave,40.737968206,-73.930161595
W 12 St & Hudson St,40.73752993301071,-74.00558933615685
61 St & Laurel Hill Blvd,40.7388,-73.90338
Borden Ave & Review Ave,40.73866345465306,-73.94093804061413
E 27 St & 1 Ave,40.739445,-73.976806
E 25 St & 1 Ave,40.738012671,-73.977152109
Gramercy Park N & Gramercy Park E,40.73795,-73.98509
48 St & 50 Ave,40.737432718,-73.918036819
Ash St & Manhattan Ave,40.74,-73.95
E 16 St & 5 Ave,40.73726186,-73.99238967
39 St & 50 Ave,40.73824937345944,-73.92737478017807
W 13 St & 7 Ave,40.73781509,-73.99994661
W 15 St & 7 Ave,40.73920548,-73.999447107
31 Pl & Hunters Point Ave,40.74021356884924,-73.93537044525146
Washington St & Gansevoort St,40.739323,-74.008119
E 25 St & 2 Ave,40.73912601,-73.97973776
E 20 St & Park Ave,40.73827428,-73.98751968
44 St & 48 Ave,40.73941387498411,-73.92131969332695
W 18 St & 6 Ave,40.73971301,-73.99456405
48 Ave & 37 St,40.740324616,-73.929044604
Greenwich Ave & 8 Ave,40.7390169121,-74.0026376103
8 Ave & W 16 St,40.740756989,-74.001898646
Gansevoort St & Hudson St,40.73944820130404,-74.00507032871246
30 St & 48 Ave,40.741319776,-73.938009143
1 Ave & E 30 St,40.741484523,-73.975349903
Lexington Ave & E 24 St,40.74025878,-73.98409214
Lexington Ave & E 26 St,40.741742611,-73.983242512
E 26 St & 3 Ave,40.740592003,-73.981550217
47 Ave & 48 St,40.740831733,-73.917045355
W 20 St & 5 Ave,40.73972989238724,-73.99103969335556
Broadway & E 21 St,40.740014553,-73.98941803
Broadway & E 19 St,40.738662362,-73.990030289
48 Ave & 41 St,40.73985995699164,-73.92400324344635
W 17 St & 7 Ave,40.74056423633952,-73.99852573871613
69 St & 43 Ave,40.741919398,-73.895656466
34 St & 48 Ave,40.740782261,-73.931537271
Hudson St & W 13 St,40.74005708567285,-74.0052741765976
W 15 St & 10 Ave,40.74275382865903,-74.00747358798981
61 St & Queens Blvd,40.74091,-73.90273
2 Ave & E 29 St,40.74172351097472,-73.97809267044067
49 Ave & 21 St,40.74252,-73.948852
Madison Ave & E 26 St,40.742654324,-73.986786485
E 27 St & Park Ave S,40.74275179648995,-73.9847157150507
Greenpoint Ave & 47 St,40.7424,-73.91808
44 St & Greenpoint Ave,40.741084218,-73.921030521
5 St & 51 Ave,40.7423737,-73.9566
W 21 St & 6 Ave,40.741686225,-73.994040489
72 St & Woodside Ave,40.742910028,-73.892920971
36 St & 47 Ave,40.742192149,-73.92940855
39 St & 47 Ave,40.742211103,-73.926647544
W 17 St & 8 Ave,40.74177603,-74.00149746
65 Pl & Woodside Ave,40.74332571,-73.899047256
47 Ave & 31 St,40.743014097,-73.935451508
10 Ave & W 14 St,40.74198159994023,-74.00831580162048
Queens Blvd & 56 St,40.741892219,-73.908873081
57 St & 43 Ave,40.743101478,-73.908059239
Lexington Ave & E 29 St,40.743134022,-73.982083797
51 St & Queens Blvd,40.7429,-73.91395
Vernon Blvd & 50 Ave,40.74232744,-73.95411749
Broadway & W 25 St,40.742726803,-73.989031672
40 St & Queens Blvd,40.743426085,-73.924335122
Center Blvd & 51 Ave,40.74336608027021,-73.95960688591003
W 20 St & 7 Ave,40.74238787,-73.99726235
Woodside Ave & 69 St,40.742853761,-73.896018028
33 St & 47 Ave,40.74283,-73.9321
33 St & Queens Blvd,40.7443653191867,-73.93172398209572
W 18 St & 9 Ave,40.7435337324616,-74.00367558002472
9 Ave & W 18 St,40.74317449,-74.00366443
62 St & 43 Ave,40.74261,-73.903
61 St & Woodside Ave,40.74501,-73.9036
2 Ave & E 31 St,40.74290902,-73.97706058
E 33 St & 1 Ave,40.74322681432173,-73.97449783980846
53 St & Roosevelt Ave,40.7445786,-73.911445498
Jackson Ave & 46 Rd,40.74524768,-73.94733276
E 30 St & Park Ave S,40.74444921,-73.98303529
43 Ave & 47 St,40.7448062877224,-73.91728967428207
46 St & Queens Blvd,40.74349759836971,-73.91860529780388
48 Ave & 5 St,40.744391561,-73.955674648
Vernon Blvd & 47 Rd,40.745044708,-73.953467846
W 25 St & 6 Ave,40.74395411,-73.99144871
W 27 St & 6 Ave,40.74526,-73.99062
39 St & Queens Blvd,40.744333863,-73.925994873
W 22 St & 8 Ave,40.744792938,-73.999265313
W 20 St & 8 Ave,40.74345335,-74.00004031
8 Ave & W 24 St,40.74591072834279,-73.99807110428809
41 Ave & 67 St,40.74446,-73.89764
31 St & Thomson Ave,40.744571686,-73.935594916
FDR Drive & E 35 St,40.744219,-73.97121214
W 16 St & The High Line,40.74334935,-74.00681753
57 St & Woodside Ave,40.745778441,-73.907394767
Woodside Ave & Roosevelt Ave,40.74549,-73.90605
Woodside Ave & 60 St,40.74521,-73.90462
47 Ave & Skillman Ave,40.743688822,-73.94189322
E 31 St & 3 Ave,40.74394314,-73.97966069
51 St & 43 Ave,40.74451,-73.91412
W 27 St & 7 Ave,40.746647,-73.993915
5 Ave & E 29 St,40.7451677,-73.98683077
43 Ave & 42 St,40.74534682580983,-73.9219419658184
Center Blvd & 48 Ave,40.745038,-73.957539
W 24 St & 7 Ave,40.74487634,-73.99529885
72 St & 41 Ave,40.744564176,-73.893700719
36 St & Queens Blvd,40.743997097,-73.929027677
9 Ave & W 22 St,40.745643258,-74.001855731
65 St & Roosevelt Ave,40.745736361,-73.899163485
Woodside Ave & 55 St,40.74679,-73.90893
Skillman Ave & 54 St,40.745502,-73.909887
E 32 St & Park Ave,40.74549377,-73.981623411
48 St & Skillman Ave,40.74622874694195,-73.91616314649582
46 Ave & 5 St,40.74731,-73.95451
Broadway & W 29 St,40.746502757,-73.988625646
43 Ave & 40 St,40.74562,-73.92402
W 26 St & 8 Ave,40.74734825,-73.99723551
8 Ave & W 27 St,40.747968,-73.996637
W 25 St & 8 Ave,40.74653697,-73.997184515
69 St & 38 Ave,40.746709228,-73.896561146
Skillman Ave & 43 Ave,40.74653761978055,-73.93215849995613
1 Ave & E 39 St,40.747235179,-73.97108984
W 20 St & 10 Ave,40.745582342,-74.005158901
W 22 St & 10 Ave,40.74691959,-74.00451887
61 St & 39 Ave,40.7471,-73.9028
27 St & Hunter St,40.7485,-73.941275
Lexington Ave & E 36 St,40.7475739589548,-73.9788007736206
39 Dr & 52 St,40.74732,-73.91197
45 Rd & 11 St,40.74708586,-73.94977234
45 Ave & 21 St,40.74737075646803,-73.94777297973631
E 33 St & 5 Ave,40.74765947,-73.98490707
43 St & Skillman Ave,40.74692675687384,-73.9208248257637
W 31 St & 7 Ave,40.749156,-73.9916
Skillman Ave & Honeywell St,40.7471482490328,-73.92902433872223
W 25 St & 9 Ave,40.74783260583772,-74.0005722643582
37 Ave & 63 St,40.748991132,-73.900052428
E 39 St & 2 Ave,40.74803319428767,-73.973827958107
39 Ave & 56 St,40.74838,-73.90699
44 Dr & Jackson Ave,40.74718234,-73.9432635
48 St & Barnett Ave,40.75001640425933,-73.91540944576263
9 St & 44 Rd,40.74966,-73.9521
6 Ave & W 33 St,40.74901271,-73.98848395
6 Ave & W 34 St,40.749668837,-73.988051534
W 30 St & 8 Ave,40.74965268472847,-73.9952078461647
1 Ave & E 44 St,40.749787569,-73.96925211
W 26 St & 10 Ave,40.749717753,-74.002950346
60 St & 37 Ave,40.74958,-73.90256
E 39 St & Lexington Ave,40.7494985460252,-73.97729203113158
39 Ave & 54 St,40.74891,-73.90899
21 St & 43 Ave,40.75052534,-73.94594845
W 37 St & 5 Ave,40.75038009,-73.98338988
E 35 St & Madison Ave,40.74848023448579,-73.98255586624146
43 St & 37 Ave,40.750181,-73.919998
39 Ave & 45 St,40.74947822183477,-73.91826465725897
W 29 St & 9 Ave,40.750126839,-73.998430371
65 St & 35 Ave,40.75053,-73.8977
65 St & Broadway,40.7493722738996,-73.89738768339157
E 43 St & 2 Ave,40.75022392,-73.97121414
E 44 St & 2 Ave,40.75118387463277,-73.97138714790344
11 Ave & W 27 St,40.751396,-74.005226
57 St & 37 Ave,40.75054729,-73.90517056
Queens Plaza North & Crescent St,40.751162887,-73.940830946
E 41 St & Madison Ave (SE corner),40.752049,-73.979635
E 40 St & Park Ave,40.750756,-73.978326
48 St & 37 Ave,40.751555,-73.915026
50 St & Barnett Ave,40.750097682094825,-73.91349703073502
11 St & 43 Ave,40.75193119,-73.94783473
Broadway & W 36 St,40.75097711,-73.98765428
Broadway & W 37 St,40.75172632,-73.98753523
W 37 St & Broadway,40.75227093837409,-73.98770570755005
8 Ave & W 31 St,40.7505853470215,-73.9946848154068
8 Ave & W 33 St,40.751551,-73.993934
34 St & 38 Ave,40.752377033,-73.929898381
10 Ave & W 28 St,40.750280619,-74.002088904
W 30 St & 10 Ave,40.752694,-74.002353
62 St & 34 Ave,40.75201,-73.89986
40 Ave & Crescent St,40.7535992020056,-73.93795609474182
28 St & 41 Ave,40.751047,-73.93797
E 45 St & 3 Ave,40.75255434,-73.97282625
E 44 St & Lexington Ave,40.752643,-73.974996
54 St & 37 Ave,40.75098,-73.90799
21 St & Queens Plaza North,40.75325964,-73.94335788
W 40 St & 5 Ave,40.752200246,-73.982313871
E 40 St & 5 Ave,40.752062307,-73.9816324043
W 36 St & 7 Ave,40.752149,-73.989539
38 St & Northern Blvd,40.752372,-73.925384
W 33 St & 10 Ave,40.753359318,-73.999598503
31 St & Northern Blvd,40.752236485,-73.933303475
E 47 St & 1 Ave,40.75206862,-73.96784384
E 47 St & 2 Ave,40.75323098,-73.97032517
55 St & Northern Blvd,40.75326,-73.90585
24 St & 41 Ave,40.752474,-73.939991
50 St & Northern Blvd,40.753441,-73.912402
Vernon Blvd & Queens Plaza S,40.75408220615571,-73.94942253828049
Vernon Blvd & 41 Rd,40.7552433,-73.9485678
W 42 St & 6 Ave,40.75492,-73.98455
43 St & 35 Ave,40.754139,-73.919543
42 Pl & Northern Blvd,40.753091,-73.920603
W 35 St & 8 Ave,40.752762088742045,-73.99280458705107
8 Ave & W 38 St,40.75461,-73.99177
37 Ave & 35 St,40.7531106,-73.9279917
E 51 St & 1 Ave,40.75455731,-73.96592976
W 34 St & Hudson Blvd E,40.758475661,-73.989638209
62 St & Northern Blvd,40.754176,-73.900318
38 Ave & 29 St,40.75473,-73.93367
E 48 St & 3 Ave,40.7546011026,-73.971878855
Broadway & 51 St,40.754164,-73.908906
W 44 St & 5 Ave,40.754459262,-73.980912805
E 43 St & Madison Ave,40.753731489,-73.978901029
34 Ave & 48 St,40.75388,-73.914952
Broadway & W 41 St,40.75513557,-73.98658032
W 40 St & 7 Ave,40.754818,-73.988154
Broadway & W 38 St,40.7529728216068,-73.98734897375107
35 Ave & 37 St,40.7557327,-73.9236611
Southpoint Park,40.75370225419114,-73.95865201950072
W 36 St & 9 Ave,40.75462324029105,-73.99516761302948
W 35 St & Dyer Ave,40.754691750226016,-73.99740189313889
W 35 St & 9 Ave,40.754182577,-73.996227264
36 Ave & 31 St,40.756421804,-73.929150105
E 51 St & 2 Ave,40.755293,-73.967641
W 34 St & 11 Ave,40.75594159,-74.0021163
58 St & 32 Ave,40.75574,-73.903427
24 St & 38 Ave,40.756351,-73.936515
E 47 St & Park Ave,40.75510267,-73.97498696
Broadway & 49 St,40.755389,-73.911517
W 43 St & 6 Ave,40.75527307,-73.98316936
6 Ave & W 45 St,40.756951,-73.982631
34 Ave & 45 St,40.754835725,-73.917107821
Roosevelt Island Tramway,40.757196784,-73.9534446
W 41 St & 8 Ave,40.75640548,-73.9900262
W 42 St & 8 Ave,40.758007765,-73.990513802
34 St & 35 Ave,40.756993055,-73.926358223
E 54 St & 1 Ave,40.756265,-73.964179
W 37 St & 10 Ave,40.75660359,-73.9979009
Hudson Blvd W & W 36 St,40.75676475086503,-73.99971440439913
28 St & 36 Ave,40.757186,-73.932719
E 53 St & 3 Ave,40.757449865,-73.969513059
E 53 St & Lexington Ave,40.758186817,-73.970727086
31 Ave & 57 St,40.757357,-73.904726
E 48 St & 5 Ave,40.75724567911726,-73.97805914282799
W 48 St &  Rockefeller Plaza,40.75776935448309,-73.97929430007935
48 St & Broadway,40.755763,-73.912715
34 Ave & 38 St,40.756956339,-73.921613097
W 42 St & Dyer Ave,40.758756638,-73.993437529
9 Ave & W 39 St,40.756403523272496,-73.99410143494606
E 55 St & 2 Ave,40.75797322,-73.96603308
31 Ave & 61 St,40.757525,-73.901614
21 St & 38 Ave,40.7576314,-73.9391224
E 51 St & Lexington Ave,40.75714758,-73.97207836
E 53 St & Madison Ave,40.7597108,-73.97402311
Madison Av & E 51 St,40.75863,-73.97513
E 50 St & Park Ave,40.757389545,-73.974651098
49 St & 31 Ave,40.758057,-73.909831
51 St & Hobart St,40.75767234025041,-73.90769943594933
40 Ave & 9 St,40.75742,-73.945133
W 47 St & 6 Ave,40.758397,-73.98255
43 St & Broadway,40.7577284,-73.9166368
W 45 St & 8 Ave,40.759406924,-73.988985062
35 St & 34 Ave,40.7580583,-73.9242751
E 58 St & 1 Ave (NE Corner),40.75892386377695,-73.96226227283478
E 60 St & York Ave,40.75865376,-73.958927274
Crescent St & 35 Ave,40.75949502,-73.932284355
E 56 St & 3 Ave,40.75934501,-73.96759673
W 51 St & Rockefeller Plaza,40.760188699,-73.978510737
46 St & 30 Rd,40.76072,-73.910989
Broadway & W 48 St,40.76017739537783,-73.98486793041229
Steinway St & Broadway,40.75905795418586,-73.91897544264793
9 Ave & W 45 St,40.76019252,-73.9912551
34 Ave & 31 St,40.759631395,-73.927122474
E 58 St & 1 Ave (NW Corner),40.759125,-73.962658
11 Ave & W 41 St,40.76030096,-73.99884222
21 St & 36 Ave,40.7601853,-73.9362726
E 56 St & Madison Ave,40.761573,-73.972628
50 St & 30 Ave,40.760083,-73.907107
36 Ave & 10 St,40.761476994,-73.941051722
W 52 St & 6 Ave,40.76132983124814,-73.97982001304626
W 51 St & 6 Ave,40.7606597,-73.98042047
Newton Rd & 44 St,40.759596944,-73.914358616
W 49 St & 8 Ave,40.76227205,-73.98788205
8 Ave & W 49 St,40.76171227910671,-73.98655101656914
35 St & Broadway,40.760339,-73.9222427
1 Ave & E 62 St,40.7612274,-73.96094022
W 43 St & 10 Ave,40.76009437,-73.99461843
W 44 St & 11 Ave,40.762009,-73.996975
Crescent St & 34 Ave,40.76108,-73.930562
E 58 St & 3 Ave,40.761103034,-73.967521548
3 Ave & E 62 St,40.76358223,-73.96522069
12 Ave & W 40 St,40.76087502,-74.00277668
Bulova Ave & Brooklyn Queens Expressway W,40.762507,-73.902534
W 54 St & 6 Ave,40.76,-73.98
30 Ave & 47 St,40.761294,-73.909562
Broadway & W 51 St,40.762578249,-73.983478189
Broadway & W 53 St,40.76344058,-73.98268129
31 Ave & Steinway St,40.7614218,-73.916838288
W 47 St & 9 Ave,40.76153045158114,-73.99007007479668
31 St & Broadway,40.761539221,-73.925879598
W 46 St & 11 Ave,40.763600111,-73.996801138
34 Ave & 21 St,40.762846589,-73.934258103
E 59 St & Madison Ave,40.763434291,-73.971403599
49 St & 25 Ave,40.764496,-73.904632
35 Ave & 10 St,40.763154507,-73.939895272
W 56 St & 6 Ave,40.763406,-73.977225
W 55 St & 6 Ave,40.763189,-73.978434
30 Ave & 41 St,40.763422,-73.914142
Motorgate,40.764125228,-73.947827816
8 Ave & W 52 St,40.763765574,-73.985205531
31 Ave & 34 St,40.763154,-73.920827
1 Ave & E 68 St,40.764959216,-73.958114147
W 47 St & 10 Ave,40.762719035,-73.992995024
Crescent St & Broadway,40.763322592,-73.928489566
E 63 St & 3 Ave,40.757475019,-73.985508323
34 Ave & 13 St,40.7638753,-73.9364848
E 58 St & Madison Ave,40.76302594280519,-73.97209525108337
Grand Army Plaza & Central Park S,40.764208198,-73.97380197
46 St & 28 Ave,40.763396502,-73.90870595
Broadway & W 56 St,40.764793873,-73.982530713
7 Ave & W 55 St,40.764372587,-73.981163383
38 St & 30 Ave,40.764135361,-73.915886283
W 50 St & 9 Ave,40.76360467795863,-73.98917958140373
31 Ave & 30 St,40.7647,-73.9240312
E 65 St & 2 Ave,40.76471851944339,-73.96222069859505
21 St & 31 Dr,40.7659,-73.930819
34th Ave & Vernon Blvd,40.76535380385866,-73.93986314535141
Central Park S & 6 Ave,40.76590936,-73.97634151
28 Ave & 44 St,40.764195561,-73.910918951
W 56 St & 8 Ave,40.765959181657976,-73.98313522338867
35 St & 30 Ave,40.765489578,-73.918126464
E 72 St & York Ave,40.76663814,-73.95348296
W 53 St & 10 Ave,40.76669671,-73.99061728
W 50 St & 10 Ave,40.76473420006519,-73.99194359779358
31 Ave & Crescent St,40.7658346,-73.9265474
E 68 St & 3 Ave,40.766982794,-73.961984992
Broadway & 12 St,40.7668,-73.9347774
5 Ave & E 63 St,40.766368,-73.971518
46 St & 25 Ave,40.765753,-73.90676
7 Ave & Central Park South,40.7667405590595,-73.9790689945221
Steinway St & 28 Ave,40.7656251,-73.9136695
W 54 St & 9 Ave,40.76584941,-73.98690506
31 St & Newtown Ave,40.767476559,-73.921047688
2 Ave & E 72 St,40.7687620293096,-73.95840793848038
W 52 St & 11 Ave,40.767289758,-73.993951082
Ditmars Blvd & 76 St,40.768442,-73.893531
23 St & 31 Ave,40.76663971723091,-73.9286595582962
31 Rd & 21 St,40.766824,-73.930486
E 67 St & Park Ave,40.76780080148132,-73.96592080593109
E 68 St & Madison Ave,40.7691572,-73.96703464
Ditmars Blvd & 48 St,40.769219,-73.901001
Vernon Blvd & 10 St,40.7671863,-73.9373554
25 Ave & 41 St,40.767666,-73.910963
Broadway & W 58 St,40.76695317,-73.98169333
28 Ave & 35 St,40.7671,-73.9169858
E 74 St & 1 Ave,40.7689738,-73.95482273
W 56 St & 10 Ave,40.768254,-73.988639
W 54 St & 11 Ave,40.768333,-73.992573
Crescent St & 30 Ave,40.768692,-73.9249574
3 Ave & E 71 St,40.76873687,-73.96119945
Ditmars Blvd & 73 St,40.768162489,-73.896474004
31 Ave & 14 St,40.7682,-73.9322662
E 66 St & Madison Ave,40.768276215,-73.968414545
37 St & 24 Ave,40.770168424,-73.912043452
31 St & Astoria Blvd,40.7699176,-73.9184057
E 75 St & 3 Ave,40.77112927,-73.95772297
Ditmars Blvd & 79 St,40.768718958,-73.890918136
30 Ave & 21 St,40.7703743,-73.9286078
E 72 St & Park Ave,40.771171093,-73.964065194
Vernon Blvd & 31 Ave,40.769164324,-73.935587525
Steinway St & 23 Ave,40.771409392,-73.907768846
43 St & 23 Ave,40.769673,-73.906018
Broadway & W 61 St,40.77003010255044,-73.9819684624672
31 St & Hoyt Ave N,40.7711528,-73.9170074
E 77 St & 1 Ave,40.77095553869235,-73.95356208096926
1 Ave & E 78 St,40.771395802,-73.953452706
W 59 St & 10 Ave,40.770513,-73.988038
Newtown Ave & 23 St,40.771358967,-73.924526811
3 Ave & E 72 St,40.769959927,-73.960595489
76 St & 21 Ave,40.770151258,-73.8936553
Hazen St & 20 Ave,40.772109032,-73.895117164
30 Ave & 12 St,40.77171710520828,-73.93159255385399
Ditmars Blvd & 43 St,40.771203,-73.903865
35 St & 23 Ave,40.77301508291382,-73.91119033098221
E 82 St & East End Ave,40.772691369,-73.946782351
W 63 St & Broadway,40.77163851,-73.98261428
E 78 St & 2 Ave,40.772658229,-73.955730557
11 Ave & W 59 St,40.77149671054441,-73.99046033620834
West End Ave & W 60 St,40.77237,-73.99005
21 Ave & 80 St,40.770888,-73.889914
18 St & 27 Ave,40.772768286288304,-73.92743647098541
20 Ave & 48 St,40.773012638,-73.897014618
8 St & Astoria Blvd,40.77253902,-73.932717443
Steinway St & Ditmars Blvd,40.772717,-73.906127
Central Park West & W 68 St,40.7734066,-73.97782542
23 Rd & 31 St,40.77336750284339,-73.91382560133934
E 81 St & York Ave,40.772831321,-73.949738979
E 77 St & 3 Ave,40.77314236,-73.95856158
27 Ave & 9 St,40.7739825,-73.9309134
5 Ave & E 72 St,40.77282817,-73.96685276
36 St & Ditmars Blvd,40.774306,-73.908335
E 85 St & East End Ave,40.77431811327392,-73.94548773765564
East End Ave & E 86 St,40.775001049,-73.944535613
W 67 St & Broadway,40.774751544,-73.982344747
24 Ave & 29 St,40.7729,-73.916142
E 81 St & 1 Ave,40.77377781072322,-73.95197331905365
W 64 St & Thelonious Monk Circle,40.77515953434235,-73.98918695747852
21 St & Hoyt Ave S,40.774645,-73.923706
E 76 St & Park Ave,40.773934364,-73.962111712
27 Ave & 3 St,40.774876237,-73.934185028
Steinway St & 21 Ave,40.774798,-73.903787
Central Park West & W 72 St,40.77579376683666,-73.9762057363987
31 St & 23 Ave,40.7747878,-73.9125551
31 St & Ditmars Blvd,40.776168,-73.910485
E 85 St & York Ave,40.77536905,-73.94803392
Amsterdam Ave & W 66 St,40.774749041,-73.984640598
24 Ave & 26 St,40.774591,-73.918544
E 81 St & 3 Ave,40.77573034,-73.9567526
Astoria Park S & Shore Blvd,40.7767,-73.927631
5 Ave & E 78 St,40.77632142182271,-73.96427392959595
20 Ave & 42 St,40.775415,-73.900063
35 St & 21 Ave,40.776763797,-73.906561017
Columbus Ave & W 72 St,40.7770575,-73.97898475
23 Ave & 27 St,40.776165,-73.9153175
E 84 St & 1 Ave,40.77565541,-73.95068615
Riverside Blvd & W 67 St,40.777507027547976,-73.98888587951659
19 St & 24 Ave,40.777671218,-73.922356725
E 81 St & Park Ave,40.77677702,-73.9590097
Madison Ave & E 82 St,40.777934194,-73.960873723
20 Ave & 38 St,40.777112,-73.902382
31 St & 21 Ave,40.77813,-73.90842
E 89 St & York Ave,40.7779453,-73.946041
W 70 St & Amsterdam Ave,40.77748046,-73.98288594
21 St & 23 Ave,40.778557,-73.919046
E 85 St & 3 Ave,40.77801203,-73.95407149
Steinway St & 19 Ave,40.77803874,-73.899643064
W 74 St & Columbus Ave,40.7785669,-73.97754961
Crescent St & Ditmars Blvd,40.7787185,-73.9145645
E 88 St & 1 Ave,40.778301,-73.9488134
E 84 St & Park Ave,40.77862688,-73.95772073
Central Park West & W 76 St,40.77896784,-73.97374737
20 Ave & 31 St,40.78012085,-73.906848431
Amsterdam Ave & W 73 St,40.779785991,-73.980846763
E 89 St & 3 Ave,40.78066802,-73.95218277
Shore Blvd & Astoria Park,40.77977,-73.923162
W 76 St & Columbus Ave,40.7801839724239,-73.97728532552719
21 Ave & Crescent St,40.780478,-73.912212
E 91 St & 2 Ave,40.781406283,-73.950324059
E 93 St & 2 Ave,40.782454175279874,-73.9489196240902
1 Ave & E 94 St,40.7817212,-73.94594
Riverside Dr & W 72 St,40.78057799010334,-73.98562431335449
Ditmars Blvd & 19 St,40.78145,-73.9183302
E 88 St & Park Ave,40.781410700190015,-73.95595908164978
W 82 St & Central Park West,40.782871962,-73.971467972
Amsterdam Ave & W 79 St,40.7829391,-73.9786517
21 St & 21 Ave,40.782461524,-73.914482713
5 Ave & E 87 St,40.78232260730881,-73.95987510681152
Wards Meadow Comfort Station,40.782957315,-73.930775881
2 Ave & E 96 St,40.7839636,-73.9471673
Riverside Dr & W 78 St,40.78414472,-73.98362492
West End Ave & W 78 St,40.784005642,-73.981743097
21 Ave & Shore Blvd,40.783950448,-73.91682744
E 91 St & Park Ave,40.7835016,-73.955327
Central Park West & W 85 St,40.78476,-73.969862
Amsterdam Ave & W 82 St,40.785362363,-73.976642251
20 Ave & 21 St,40.783911586,-73.91220355
E 97 St & 3 Ave,40.7859201,-73.94860294
E 95 St & 3 Ave,40.784928322,-73.950510383
5 Ave & E 93 St,40.7857851,-73.957481
W 84 St & Columbus Ave,40.78499979,-73.97283406
2 Ave & E 99 St,40.7862586,-73.94552579
Riverside Dr & W 82 St,40.78720869,-73.98128127
20 Ave & Shore Blvd,40.785994,-73.915098
E 97 St & Madison Ave,40.787912369,-73.953497648
E 102 St & 1 Ave,40.7869946,-73.94164802
W 84 St & Broadway,40.7867947,-73.977112
3 Ave & E 100 St,40.7877214,-73.94728331
W 90 St & Amsterdam Ave,40.79017948095081,-73.97288918495178
W 89 St & Columbus Ave,40.7882213,-73.97041561
2 Ave & E 104 St,40.7892105,-73.94370784
Madison Ave & E 99 St,40.789485,-73.952429
E 98 St & Park Ave,40.78813,-73.95206
Pleasant Ave & E 116 St,40.7949879,-73.9333349
Central Park W & W 91 St,40.788782239,-73.966600537
E 106 St & 1 Ave,40.7892529,-73.93956237
W 87 St & Amsterdam Ave,40.788576365,-73.975069046
E 103 St & Lexington Ave,40.7903051,-73.94755757
E 106 St & 2 Ave,40.790405273,-73.941613078
W 87 St & West End Ave,40.789622,-73.97757
E 102 St & Park Ave,40.7904828,-73.95033068
W 92 St & Broadway,40.792345524,-73.974280715
E 106 St & Lexington Ave,40.791916132,-73.945879579
5 Ave & E 103 St,40.7922553,-73.95249933
Icahn Stadium,40.79346,-73.92389
Columbus Ave & W 95 St,40.7919557,-73.968087
1 Ave & E 110 St,40.7923272,-73.9383
West End Ave & W 94 St,40.794237733,-73.973986387
Riverside Dr & W 91 St,40.79313480986663,-73.97700369358063
E 106 St & Madison Ave,40.7934337,-73.94945003
W 100 St & Manhattan Ave,40.795,-73.9645
Central Park W & W 97 St,40.79249519495111,-73.96417066463071
E 114 St & 1 Ave,40.7945663,-73.9362541
W 95 St & Broadway,40.793873429,-73.971797943
3 Ave & E 112 St,40.795508,-73.941606
E 116 St & 2 Ave,40.796879,-73.937261
Lexington Ave & E 111 St,40.7954121,-73.9441232
Sunken Meadow Comfort Station,40.79558,-73.91906
Central Park W & W 103 St,40.795747757,-73.961825848
Pleasant Ave & E 120 St,40.7974772,-73.9311847
E 117 St & 1 Ave,40.796563387,-73.934566021
W 100 St & Broadway,40.7973721,-73.97041192
W 111 St & 5 Ave,40.79752078124756,-73.9489397406578
Columbus Ave & W 103 St,40.797088742,-73.964204669
E 118 St & 1 Ave,40.797518492,-73.935127735
E 115 St & Madison Ave,40.7989445,-73.944846
E 115 St & Lexington Ave,40.797911,-73.9423
Lenox Ave & W 111 St,40.7987859,-73.9523
W 106 St & Central Park West,40.7981856,-73.9605909006
W 104 St & Amsterdam Ave,40.79904139288298,-73.96649479866028
E 118 St & 3 Ave,40.799216151,-73.938896179
E 134 St & Walnut Ave,40.800425,-73.911034
Central Park North & Adam Clayton Powell Blvd,40.799484,-73.955613
Bronx Shore Comfort Station,40.80046,-73.92404
W 107 St & Columbus Ave,40.799875379,-73.962097049
2 Ave & E 122 St,40.800689816,-73.934964061
Riverside Dr & W 104 St,40.8013434,-73.9711457439
E 118 St & Park Ave,40.80048728,-73.941857934
Willow Ave & E 133 St,40.800933,-73.913863
Lenox Ave & W 115 St,40.801128149,-73.950157285
Frederick Douglass Blvd & W 112 St,40.801694,-73.957145
W 106 St & Amsterdam Ave,40.8008363,-73.9664492472
E 123 St & Lexington Ave,40.802909255,-73.937898636
Walnut Ave & E 136 St,40.801657,-73.909513
E 118 St & Madison Ave,40.801547766,-73.94446528
E 133 St & Cypress Pl,40.802568793,-73.917265773
Adam Clayton Powell Blvd & W 115 St,40.802517653,-73.95320034
W 110 St & Amsterdam Ave,40.802692,-73.96295
2 Ave & E 125 St,40.802327514,-73.933689237
West End Ave & W 107 St,40.8021174,-73.9681805305
Lexington Ave & E 120 St,40.8013066,-73.9398167
E 138 St & Willow Ave,40.804254413,-73.911679626
Lenox Ave & W 117 St,40.802513957,-73.949161053
St. Ann's Av & Bruckner Blvd,40.803388357,-73.919815898
Frederick Douglass Blvd & W 115 St,40.803930044,-73.955940843
Lexington Ave & E 127 St,40.805726,-73.936322
Madison Ave & E 120 St,40.80295,-73.942954
E 138 St & Cypress Ave,40.805557609,-73.914747477
Adam Clayton Powell Blvd & W 118 St,40.804372,-73.951475
Cathedral Pkwy & Broadway,40.804213,-73.96699104
Park Ave & E 124 St,40.804665208,-73.939605474
Mt Morris Park W & W 120 St,40.804038,-73.945925
E 135 St & St Ann's Ave,40.805089,-73.918889
Frederick Douglass Blvd & W 117 St,40.805353403,-73.954653263
Willis Ave & Bruckner Blvd,40.805701,-73.925177
W 116 St & Amsterdam Ave,40.8067581,-73.9607082
E 128 St & 3 Ave,40.80558145,-73.933982611
5 Ave & W 126 St,40.807324529,-73.941848516
E 141 St & Jackson Ave,40.807015061,-73.911917448
Adam Clayton Powell Blvd & W 123 St,40.807737231,-73.949249029
Brook Ave & E 138 St,40.807408,-73.91924
Alexander Ave & E 134 St,40.807498217,-73.927176118
Lincoln Ave & E 134 St,40.808484,-73.928803
W 113 St & Broadway,40.805946112,-73.965069652
W 116 St & Broadway,40.808200002,-73.964129448
Lexington Ave & E 128 St,40.806414,-73.936085
Southern Blvd & E 142 St,40.807347437082,-73.90809774398804
Lenox Ave & W 126 St,40.808434367,-73.945321441
E 141 St & St Ann's Ave,40.808771253,-73.916056752
St Nicholas Ave & Manhattan Ave,40.809761047,-73.953143239
Willis Ave & E 137 St,40.808312416,-73.923683405
Amsterdam Ave & W 119 St,40.808511019,-73.959561706
5 Ave & W 131 St,40.81003809,-73.939751148
E 128 St & Madison Ave,40.807584167,-73.939086318
St Mary's St & Jackson Ave,40.808891,-73.91081
Adam Clayton Powell Blvd & W 126 St,40.80949534777948,-73.94776493310928
Brook Ave & E 141 St,40.809684873,-73.917847872
Morningside Ave & W 123 St,40.81,-73.9551508
Morningside Dr & Amsterdam Ave,40.81027329,-73.957235813
Lincoln Ave & E 138 St,40.810806751,-73.927371979
W 120 St & Claremont Ave,40.8109494,-73.9634
E 132 St & Madison Ave,40.810224,-73.937195
Wales Ave & E 147 St,40.811262488,-73.907779336
Lenox Ave & W 130 St,40.8107922,-73.9430681
St. Ann's Ave & E 144 St,40.811130047,-73.914899707
St. Nicholas Ave & W 126 St,40.8114323,-73.9518776
Willis Ave & E 141 St,40.810895681,-73.921620488
Southern Blvd & Avenue St. John,40.812769,-73.901583
5 Ave & E 135 St,40.812139273,-73.93791759
Adam Clayton Powell Blvd & W 130 St,40.812359929,-73.946102023
E 144 St & Brook Ave,40.811778307,-73.917143822
E 142 St & 3 Ave,40.812759638,-73.923555374
Broadway & W 122 St,40.8120562,-73.9612547
Southern Blvd & E 149 St,40.81189239,-73.904206991
Lenox Ave & W 133 St,40.813155413,-73.941751361
E 149 St & Eagle Ave,40.814081669,-73.91196084
Frederick Douglass Blvd & W 129 St,40.8125511,-73.9492286
Willis Ave & E 143 St,40.812299,-73.92037
Amsterdam Ave & W 125 St,40.813358,-73.956461
E 138 St & Park Ave,40.812685251,-73.929241657
E 138 St & Grand Concourse,40.813224,-73.930605
Beck St & Leggett Ave,40.815077,-73.899939
E 138 St & 5 Av,40.81449,-73.936153
E 149 St & Jackson Ave,40.813135,-73.909235
Adam Clayton Powell Blvd & W 132 St,40.813671947,-73.945154548
Brook Ave & E 148 St,40.814383,-73.915368
W 129 St & Convent Ave,40.814481378,-73.953339219
Hunts Point Ave & Bryant Ave,40.814192891,-73.88575387
Morris Ave & E 142 St,40.814318061,-73.924904466
Broadway & Moylan Pl,40.814338803,-73.959043026
Prospect Ave & E 151 St,40.814286351,-73.903944254
W 135 St & Lenox Terrace Pl,40.813619,-73.939336
St Ann's Ave & Westchester Ave,40.815887,-73.911918
St Nicholas Ave & W 134 St,40.8161062,-73.948312521
Courtlandt Ave & E 149 St,40.816402,-73.919549
E 147 St & Bergen Ave,40.814673,-73.91839
Amsterdam Ave & W 131 St,40.816329598,-73.954344273
Barry St & Tiffany St,40.816234112,-73.891495705
Grand Concourse & E 144 St,40.816795468,-73.927953601
Longwood Ave & Southern Blvd,40.816343,-73.896447
5 Av & W 139 St,40.815502048,-73.935893059
Westchester Ave & Jackson Ave,40.816124,-73.908116
Adam Clayton Powell Blvd & W 138 St,40.81695971032464,-73.9422959089279
Bergen Ave & E 152 St,40.817255259,-73.914632559
Convent Ave & W 135 St,40.818155885,-73.951109648
E 149 St & Morris Ave,40.81734,-73.922962
Broadway & W 131 St,40.817555,-73.957163
Southern Blvd & Tiffany St,40.818185,-73.894143
Gerard Ave & E 146 St,40.81786871,-73.929484606
Prospect Ave & Longwood Ave,40.81899,-73.90202
Lenox Ave & W 140 St,40.817245,-73.938787
Frederick Douglass Blvd & W 139 St,40.818935752,-73.944900036
Melrose Ave & E 150 St,40.816827,-73.917338
Old Broadway & W 133 St,40.818212,-73.955277
Lafayette Ave & Hunts Point Ave,40.816600084,-73.888305783
Seneca Ave & Irvine St,40.81872569990116,-73.88862490653992
E 149 St & Park Ave,40.818143606,-73.925307751
12 Ave & W 125 St,40.818299,-73.960405
Dawson St & Intervale Ave,40.819988608,-73.897305131
Westchester Ave & E 156 St,40.817768455,-73.905296683
Adam Clayton Powell Blvd & W 141 St,40.819391012,-73.94097244700001
E 156 & Brook Ave,40.819823,-73.912411
St Nicholas Ave & W 137 St,40.818477,-73.947568
Morris Ave & E 153 St,40.819535136,-73.921694398
Broadway & W 133 St,40.819177508,-73.955974579
Garrison Ave & Manida St,40.818844914,-73.890291691
E 150 St & Gerard Ave,40.82009244,-73.929115057
Westchester Ave & Longwood Ave,40.819847822,-73.901218295
Lenox Ave & W 144 St,40.819783,-73.936521
Lenox Ave & W 146 St,40.821051836,-73.936099648
Cauldwell Ave & E 158 St,40.819818854,-73.908379793
Edgecombe Ave & W 141 St,40.820681,-73.945144
Melrose Ave & E 154 St,40.819607139,-73.916129708
Amsterdam Ave & W 136 St,40.819791436,-73.951800585
Faile St & Garrison Ave,40.820578,-73.888271
W 133 St & 12 Ave,40.820003,-73.959089
E 163 St & Tiffany St,40.821075,-73.895069
E 160 St & Tinton Ave,40.820227265,-73.903788805
W 144 St & Adam Clayton Powell Blvd,40.820877,-73.939249
Brook Ave & E 157 St,40.8209126,-73.911667943
St. Nicholas Terrace & Convent Ave,40.821294,-73.947868
E 155 St & Courtlandt Ave,40.820608974,-73.917497516
E 156 St & Courtlandt Ave,40.821238041,-73.917101741
Broadway & W 138 St,40.82182,-73.95353
Riverside Dr & W 138 St,40.823175073,-73.955849528
Bruckner Blvd & Bryant Ave,40.821910739,-73.888601661
Walton Ave & E 153 St,40.822351,-73.926907
Intervale Ave & Westchester Ave,40.821762443,-73.896792889
Cauldwell Ave & E 161 St,40.821857452,-73.907571554
Frederick Douglass Blvd & W 145 St,40.823251009,-73.941810846
E 158 St & Melrose Ave,40.822215,-73.914688
Hamilton Pl & W 140 St,40.822756,-73.951346
Concourse Village West & E 156 St,40.823409677,-73.923318624
E 165 St & Fox St,40.823981285,-73.894097924
River Ave & E 151 St,40.822217,-73.928939
E 163 St & Union Ave,40.822512507,-73.901736856
W 147 St & Adam Clayton Powell Blvd,40.82281,-73.937413
3 Ave & E 163 St,40.823872,-73.908699
Edgecombe Ave & W 145 St,40.823464274,-73.943968177
E 161 St & Park Ave,40.824811,-73.916407
Broadway & W 142 St,40.824686,-73.951947
W 140 St & Riverside Dr,40.824048638,-73.954639316
Longfellow Ave & Aldus St,40.823109865,-73.887675524
Longfellow Ave & E 165 St,40.825345993,-73.887758255
Grand Concourse & E 156 St,40.823429,-73.924689
Rogers Pl & E 165 St,40.823890805,-73.897429466
Tinton Ave & E 165 St,40.824939728,-73.902406454
Bradhurst Ave & W 148 St,40.825125,-73.941616
Washington Ave & E 163 St,40.824163675,-73.910648584
W 145 St & Amsterdam Ave,40.825244,-73.947257
Concourse Village East & E 158 St,40.823713064,-73.919407964
Westchester Ave & Southern Blvd,40.824983478,-73.891708612
E 157 St & River Ave,40.825735927,-73.927308679
River Ave & E 153 St,40.82441,-73.92818
Prospect Ave & E 167 St,40.826256156,-73.898772478
Adam Clayton Powell Blvd & W 151 St,40.825289,-73.936232
3 Ave & Franklin Ave,40.827019095,-73.907435179
St Nicholas Ave & W 150 St,40.827091217,-73.942823648
Park Ave & E 162 St,40.825716,-73.915585
Riverside Dr & W 145 St,40.827305,-73.951989
W 146 St & Broadway,40.826880455,-73.949705005
Home St & Westchester Ave,40.827667952,-73.886758089
Grand Concourse & E 161 St,40.827272773,-73.922744274
E 169 St & Fox St,40.827142954,-73.893576622
E 153 St & E 157 St,40.826622486,-73.929302096
Macombs Pl & W 152 St,40.826476097,-73.937910199
W 148 St & Amsterdam Ave,40.826994181,-73.946008563
Morris Ave & E 163 St,40.827230499624726,-73.91765579597632
E 167 St & Bryant Ave,40.826708913,-73.888532043
E 161 St & River Ave,40.827884912,-73.927142739
Intervale Ave & Kelly St,40.827301,-73.896372
E 167 St & Franklin Ave,40.82895,-73.90521
Boston Rd & E 167 St,40.828199,-73.903719
Edgecombe Ave & W 150 St,40.827062607,-73.941307545
Convent Ave & W 151 St,40.82831,-73.942924
Webster Ave & E 166 St,40.829005241,-73.911288857
E 165 St & Clay Ave,40.828081131,-73.912717223
Riverside Dr & W 148 St,40.829114,-73.950426
Grand Concourse & E 164 St,40.829608,-73.921461
Freeman St & Southern Blvd,40.830071926,-73.892299771
Jerome Ave & Anderson Ave,40.830179,-73.928747
Union Ave & E 169 St,40.82995,-73.898802
W 155 St & Frederick Douglass Blvd,40.829351783,-73.937037945
Washington Ave & E 167 St,40.829896,-73.907618
Amsterdam Ave & W 152 St,40.829507709,-73.944324255
Sherman Ave & E 166 St,40.831288934,-73.91747367400001
West Farms Rd & Boone Ave,40.8301283948092,-73.88630211353302
Gerard Ave & E 164 St,40.829960942,-73.923382521
Freeman St & Reverend James A Polite Ave,40.830474734,-73.89459908
Jerome Ave & Ogden Ave,40.829797,-73.931015
Fulton Ave & E 168 St,40.830462813,-73.904606819
St. Nicholas Ave & W 155 St,40.830519438,-73.94137001
St. Nicholas Ave & W 157 St,40.832314,-73.94102
Harlem River Dr & W 155 St,40.830476,-73.939929
E 167 St & Clay Ave,40.830877662,-73.911171556
Broadway & W 153 St,40.831327,-73.946665
Grand Concourse & E 166 St,40.831984043,-73.919665456
Hoe Ave & Jennings St,40.832171,-73.889686
Jerome Ave & E 164 St,40.831444,-73.926226
Anderson Ave & W 164 St,40.832084537,-73.927460432
Prospect Ave & Jennings St,40.831762,-73.896853
Frederick Douglass Blvd & Harlem River Dr,40.830761075,-73.936345935
3 Ave & E 169 St,40.832678,-73.905158
Amsterdam Ave & W 156 St,40.832133889,-73.942608237
Morris Ave & McClellan St,40.831541657,-73.914968133
Riverside Dr & W 153 St,40.832164,-73.949702
Boone Ave & E 172 St,40.832698703,-73.885289311
Gerard Ave & E 165 St,40.831838489,-73.922362447
River Ave & McClellan St,40.833951831,-73.922532439
Louis Nine Blvd & Intervale Ave,40.831998,-73.892686
Ogden Ave & W 164 St,40.832794428,-73.929403424
Franklin Ave & E 169 St,40.831619024,-73.902142167
W 159 St & Edgecombe Ave,40.833303,-73.939326
E 169 St & Webster Ave,40.834034204,-73.908876061
Broadway & W 155 St,40.83299,-73.94592
Grand Concourse & E 167 St,40.834223509,-73.917752147
Southern Blvd & E 172 St,40.834278584,-73.889514089
E 165 St & Jerome Ave,40.832605958,-73.924929857
Boston Rd & Prospect Ave,40.833222032,-73.89667213
3 Ave & E 170 St,40.834857,-73.903743
W 160 St & St. Nicholas Ave,40.83443439,-73.939875364
College Ave & E 169 St,40.835122799036405,-73.91196817159653
E 174 St & Longfellow Ave,40.836316466,-73.884229779
Gerard Ave & McClellan St,40.833909,-73.92112
Ogden Ave & W 165 St,40.834457,-73.928381
Fulton Ave & St. Paul's Pl,40.835442901,-73.901555419
W 163 St & Edgecombe Ave,40.835828662,-73.93759203
E 170 St & Clay Ave,40.837731957,-73.90826416
E 170 St & Webster Ave,40.836065888,-73.907381892
Broadway & W 160 St,40.835662246,-73.94373548
Sheridan Ave & E 168 St,40.83519268,-73.915472388
Southern Blvd & E 174 St,40.836733,-73.887931
Wilkins Ave & Crotona Park E,40.83528614,-73.895121336
Charlotte St & Boston Rd,40.8358771,-73.8931428
E 171 St & 3 Ave,40.837119,-73.902185
Amsterdam Ave & W 162 St,40.836466074,-73.939615011
College Ave & E 170 St,40.837576,-73.910489
Walton Ave & E 168 St,40.836506128,-73.918297887
Crotona Park East & E 173 St,40.837061405,-73.89042151
University Ave & W 168 St,40.838706,-73.927034
Nelson Ave & 167 St,40.836816192,-73.926046729
Fulton Ave & E 172 St,40.839229,-73.899047
Edgecombe Ave & W 167 St,40.838191,-73.936085
E 171 St & Webster Ave,40.838376164,-73.905807257
Broadway & W 165 St,40.838893652,-73.941415548
Grand Concourse & E 171 St,40.839550734,-73.913063884
E 170 St & Sheridan Ave,40.838330626,-73.912515998
Southern Blvd & E 175 St,40.839389205,-73.886426687
Shakespeare Ave & W 169 St,40.839526296,-73.922415257
3 Ave & E 172 St,40.839524269,-73.900332332
Amsterdam Ave & W 167 St,40.839503169,-73.937303901
Morris Ave & E 171 St,40.839010119,-73.910822034
W 163 St & Riverside Dr,40.839254379,-73.9454391
Plaza Dr & W 170 St,40.840484,-73.917946
Waterloo Pl & Crotona Park East,40.839300513,-73.888553143
Ogden Ave & Merriam Ave,40.839142,-73.925961
Clay Ave & Claremont Pkwy,40.840080142,-73.905453801
W 165 St & Fort Washington Ave,40.839973688,-73.94282794
Broadway & W 168 St,40.840592027,-73.939940095
W 168th S & Fort Washington Ave,40.841972351,-73.941992402
Sheridan Ave & E 172 St,40.840469122,-73.911513805
Inwood Ave & W 170 St,40.840566158,-73.919187665
Crotona Park North & Prospect Ave,40.841231465,-73.892518282
3 Ave & E 174 St,40.842199087,-73.898571849
Amsterdam Ave & W 172 St,40.842100739,-73.93518126
Mount Eden Pkwy & Eastburn Ave,40.8427068,-73.90838623
Walton Ave & E 171 St,40.840676785,-73.915149212
W 170 St & University Ave,40.841894031,-73.926093817
W 171 St & St. Nicholas Ave,40.842941,-73.938631
Grand Concourse & East Mount Eden Ave,40.843051791,-73.911778688
Goble Pl & Macombs Rd,40.844045758,-73.917244911
Washington Ave & E 174 St,40.843161821,-73.900214314
Amsterdam Ave & W 175 St,40.844012976,-73.933743834
Clay Ave & E 173 St,40.843213797,-73.904920936
E 174 St & Walton Ave,40.844745159,-73.911952376
Featherbed Ln & Jerome Ave,40.845575094,-73.91443181
Nelson Ave & W 172 St,40.843965,-73.920999
Wadsworth Ave & W 175 St,40.846052,-73.937648
Grand Concourse & E 175 St,40.84624064,-73.909242392
Macombs Rd & Featherbed Ln,40.845605969,-73.917301536
Audobon Ave & W 179 St,40.847305,-73.933291
Anthony Ave & E 175 St,40.846457958,-73.903899312
Fort Washington Ave & W 173 St,40.845224857,-73.940701365
Townsend Ave & E 175 St,40.847478271,-73.911235094
Featherbed Ln & Nelson Ave,40.846078038,-73.919545412
Wadsworth Ave & W 179 St,40.848202109,-73.935716033
Weeks Ave & E 175 St,40.847026706,-73.907402754
Macombs Rd & W 175 St,40.848177,-73.916082
University Ave & Macombs Rd,40.849738121,-73.916039824
Popham Ave & W 174 St,40.847596169,-73.922113538
Amsterdam Ave & W 180 St,40.84744966,-73.931191087
Amsterdam Ave & W 183 St,40.84925,-73.93022
E Tremont Ave & E 176 St,40.847830415,-73.901844621
Anthony Ave & E Tremont Ave,40.84885931,-73.903284073
W 180 St & Ft Washington Ave,40.849871159,-73.938387752
Cabrini Blvd & W 177 St,40.848421454,-73.941357851
Walton Ave & E 176 St,40.848250747,-73.909534216
Jerome Ave & W 177 St,40.850121,-73.910765
W 176 St & Montgomery Ave,40.849588871,-73.919216633
University Ave & Brandt Pl,40.848410964,-73.918320417
Creston Ave & E 178 St,40.849994302,-73.906946659
W 181 St & Riverside Dr,40.851636887,-73.941866279
W Tremont Ave & Grand Ave,40.85010016,-73.912687898
Amsterdam Ave & W 186 St,40.85110867,-73.928786874
E Burnside Ave & Ryer Ave,40.850520611,-73.901348829
Fort Washington Ave & W 183 St,40.852252,-73.937854
E Tremont Ave & Jerome Ave,40.851747,-73.908964
W Tremont Ave & Montgomery Ave,40.851788,-73.916418
Broadway & W 185 St,40.852538,-73.93441
W 186 St & St. Nicholas Ave,40.852238655,-73.931224346
W Burnside Ave & University Ave,40.85360086,-73.912576795
W Tremont Ave & Matthewson Rd,40.853779078,-73.920832753
Sedgwick Ave & W Tremont Ave,40.85304455868985,-73.91830623149872
Amsterdam Ave & W 189 St,40.853311419,-73.927055955
Valentine Ave & E 181 St,40.85435915,-73.899369359
Morris Ave & E Burnside Ave,40.853294611,-73.905393243
Davidson Ave & W Burnside Ave,40.853646,-73.908731
W 190 St & St. Nicholas Ave,40.85497117,-73.929471493
Creston Ave & E 181 St,40.855080009,-73.903028131
Pinehurst Ave & W 187 St,40.855331,-73.937878
University Ave & W Burnside Ave,40.85501,-73.910751
Sedgwick Ave & W Burnside Ave,40.854947,-73.916661
Audubon Ave & W 192 St,40.85589030603889,-73.92708241939545
Valentine Ave & E 183 St,40.856987,-73.898237
Webster Ave & Ford St,40.855525494,-73.896205902
W 190 St & Broadway,40.856505513,-73.932985544
Jerome Ave & E 181 St,40.855562449,-73.90556097
Andrews Ave S & W 179 St,40.855156,-73.91278
Audubon Ave & Fort George Ave,40.85715781391904,-73.92717361450195
E 182 St & Morris Ave,40.85671103,-73.902759194
Ryer Ave & E 182 St,40.8557477,-73.899561524
Ft. Washington Ave & W 190 St,40.857001185,-73.935554385
Grand Ave & W 181 St,40.856263876,-73.907343388
Dyckman St & 10 Ave,40.858934402,-73.923055172
Tiebout Ave & E 184 St,40.858576655,-73.896503925
Broadway & W 192 St,40.857994,-73.932173
Walton Ave & E 183 St,40.858472,-73.90266
Andrew Ave N & Hall of Fame Tce,40.858460784,-73.909996867
Nagle Ave & Ellwood St,40.86012,-73.928489
Margaret Corbin Plz & Ft Washington Ave,40.859281778,-73.933817148
Buchanan Pl & Grand Ave,40.85852015,-73.906370878
Aqueduct Ave & North St,40.860373378,-73.905779839
Sedgwick Ave & Hall of Fame Tce,40.859532,-73.913303
10 Ave & W 202 St,40.861281970750994,-73.921417593956
Tiebout Ave & E Fordham Road,40.861928463,-73.894815087
Broadway & Ellwood St,40.862058,-73.929719
Jerome Ave & W 184 St,40.860814,-73.902541
Morris Ave & E 184 St,40.860268116,-73.900738239
Loring Pl North & W 183 St,40.860383391,-73.909398675
9 Ave & W 204 St,40.86169883507865,-73.91855701804161
Nagle Ave & Thayer St,40.861382,-73.925591
E 188 St & Creston Ave,40.861669,-73.898589
Grand Ave & W Fordham Rd,40.862998128,-73.903127313
Cedar Ave & W Fordham Rd,40.86156,-73.91219
W 204 St & Nagle Ave,40.863350272,-73.920773864
Academy St & Nagle Ave,40.862562,-73.922661
10 Ave & W 204 St,40.862638,-73.92006
Bainbridge Ave & E 193 St,40.863763094,-73.892511606
E Fordham Rd & Webster Ave,40.861748,-73.89105
Sherman Ave & Thayer St,40.863124,-73.926994
Jerome Ave & W Fordham Rd,40.863228559,-73.900948048
W Fordham Rd & Loring Pl N,40.862891674,-73.90712297
Decatur Ave & E 197 St,40.8657583,-73.887770772
Grand Concourse & E 192 St,40.864512205,-73.89520371
Aqueduct Ave & W 190 St,40.864933968,-73.902473807
10 Ave & W 207 St,40.864749193,-73.918647408
Bainbridge Ave & E 196 St,40.866455078,-73.890405655
Riverside Dr & Broadway,40.865364,-73.92791
Jerome Ave & W 193 St,40.86659,-73.89794
Webb Ave & W 190 St,40.865962744,-73.904380083
Decatur Ave & Oliver Pl,40.86695385,-73.885791898
W 204 St & Vermilyea Ave,40.866196632,-73.922698498
Grand Concourse & E 196 St,40.86767,-73.89286
Dyckman St & Henshaw St,40.867357,-73.92936
W 192 St & University Ave,40.866951108,-73.9018085
Bailey Ave & Sedgwick Ave,40.86571,-73.90857
Botanical Sq & Webster Ave,40.86814,-73.88145
W 211 St & 10 Ave,40.86714673,-73.917397976
Bainbridge Ave & E 198 St,40.8684871,-73.8884559781
Seaman Ave & Beak St,40.867505,-73.926363
Jerome Ave & W 195 St,40.86874,-73.89657
Dyckman St & Staff St,40.868846,-73.931537
Decatur Ave & Bedford Park Blvd,40.86813,-73.88412
Seaman Ave & Isham St,40.870059371,-73.920629025
Isham St & Broadway,40.86788,-73.919685
Grand Concourse & E 197 St,40.869515896,-73.891467452
Bailey Ave & W 193 St,40.87069,-73.90678
10 Ave & W 215 St,40.869280338,-73.915284634
Bainbridge Ave & Bedford Park Blvd,40.87002,-73.88565
9 Ave & W 219 St,40.871210098,-73.91145587
Marion Ave & Mosholu Pkwy,40.8704956,-73.8818756582
Grand Concourse & E 199 St,40.87142,-73.88839
Goulden Ave & W 197 St,40.871660233,-73.897122145
W 225 St & Exterior St,40.873265,-73.906646
Broadway & W 220 St,40.872507572,-73.912613034
W 218 St & Broadway,40.871284485,-73.914641738
E 201 St & Briggs Ave,40.872050047,-73.884645581
Jerome Ave & E 198 St,40.87144520687118,-73.89289632439613
W 218 St & Indian Rd,40.873054589370895,-73.91837194561958
Jerome Ave & Bedford Park Blvd E,40.87307,-73.88971
Grand Concourse & E 203 St,40.87382,-73.88661
Goulden Ave & Bedford Park Blvd W,40.873951554,-73.895270109
E Mosholu Pkwy & E 204 St,40.874101639,-73.883345366
Bedford Park Blvd & Paul Ave,40.874501228,-73.891921163
Grand Concourse & E 205 St,40.875531,-73.8863864831
E Mosholu Pkwy & Van Cortlandt Ave E,40.8765378,-73.883597851
Paul Ave & W 205 St,40.87717247,-73.889332175
Jerome Ave & E Mosholu Parkway S,40.879520178,-73.885247707
Grand Concourse & E Mosholu Pkwy S,40.877864122,-73.884872556
Goulden Ave & W 205 St,40.87812,-73.89192
Paul Ave & Mosholu Pkwy,40.880280018,-73.886174083
W Mosholu Pkwy S & Sedgwick Ave,40.882098079,-73.886934638
67 St & Erik Pl,40.633393764,-74.016579986
5 Ave & 66 St,40.635679,-74.020005
7 Ave & 62 St,40.63556,-74.01298
4 Ave & Shore Road Dr,40.637024164,-74.022122502
57 St & 7 Ave,40.638566,-74.010147
63 St & 5 Ave,40.63766,-74.01782
3 Ave & Wakeman Pl,40.638246,-74.024714
6 Ave & 60 St,40.638225675,-74.013830781
62 St & 4 Ave,40.639890313,-74.019818544
Wakeman Pl & Ridge Blvd,40.639333367,-74.0266819
55 St & 7 Ave,40.639673,-74.008957
59 St & 5 Ave,40.640204072,-74.015662074
64 St & 3 Ave,40.639986515,-74.023277283
6 Ave & 55 St,40.640831,-74.010996
Church Ave & Story St,40.642031,-73.981073
59 St & 4 Ave,40.641269,-74.017651
65 St & 2 Ave,40.640493,-74.02564
Keegan Rd & 2 Ave,40.642487049,-74.025562882
50 St & 7 Ave,40.642501354,-74.006113291
E 3 St & Church Ave,40.643743992,-73.977537632
55 St & 5 Ave,40.642401695,-74.013430834
12 Ave & 36 St,40.643546,-73.986418
52 St & 6 Ave,40.642754197,-74.009535551
Church Ave & McDonald Ave,40.642809,-73.979239
57 St & 4 Ave,40.642622,-74.016866
46 St & 7 Ave,40.644845247,-74.003762722
Ocean Pkwy & Church Ave,40.64471895763575,-73.97451460361481
53 St & 5 Ave,40.643371,-74.011884
Chester Ave & 12 Ave,40.644367,-73.984276
58 St & 2 Ave,40.644409657,-74.021194816
46 St & 6 Ave,40.64601171,-74.005651236
Albemarle Rd & McDonald Ave,40.645074,-73.979681
53 St & 4 Ave,40.644862,-74.014531
57 St & 1 Ave,40.646377,-74.023087
7 Ave & 41 St,40.647355199,-74.000904679
Caton Ave & E 7 St,40.647730827,-73.973639488
48 St & 5 Ave,40.646351,-74.009271
Dahill Rd & 12 Ave,40.646037,-73.980963
53 St & 2 Ave,40.64744,-74.018846
58 St & Pier 4,40.646475,-74.026081
Caton Ave & E 10 St,40.648537517,-73.97037077
44 St & 6 Ave,40.647055149,-74.004434466
Ft. Hamilton Pkwy & E 5 St,40.649037,-73.97673
47 St & 3 Ave,40.649134874,-74.012296915
52 St & 1 Ave,40.649289489,-74.020071387
7 Ave & 40 St,40.648182988,-74.000018358
E 8 St & Caton Ave,40.648219824,-73.972546935
45 St & 4 Ave,40.649145,-74.009486
Ft. Hamilton Pkwy & E 2 St,40.648005,-73.979342
48 St & 2 Ave,40.650176,-74.015606
Caton Ave & Argyle Rd,40.649681,-73.967829
Caton Ave & Argyle Rd,40.65,-73.97
5 Ave & 41 St,40.649966478,-74.005170226
Prospect Ave & Greenwood Ave,40.651745,-73.975988
44 St & 3 Ave,40.651173,-74.011405
Park Cir & East Dr,40.651566,-73.972212
41 St & 4 Ave,40.651354,-74.007168
Greenwood Ave & E 4 St,40.650716782,-73.977756262
2 Ave & 44 St,40.652296185,-74.013592362
Parade Pl & Crooke Ave,40.651847,-73.965248
5 Ave & 37 St,40.652421474,-74.002542734
Prospect Park SW & Greenwood Ave,40.652563,-73.972573
41 St & 3 Ave,40.652512,-74.008906
McDonald Ave & Vanderbilt St,40.651654,-73.981231
36 St & 4 Ave,40.654144,-74.00422
Prospect Ave & Vanderbilt St,40.653368,-73.976291
2 Ave & 43 St,40.65292829363811,-74.01286482810974
Bedford Ave & Clarkson Ave,40.655316591,-73.95639956
34 St & 5 Ave,40.654098,-74.001131
Prospect Park SW & Vanderbilt St,40.65482,-73.973217
2 Ave & 36 St,40.65708866668485,-74.00870203971863
36 St & 3 Ave,40.655716,-74.006664
2 Av & 37 St,40.656326,-74.009627
2 Ave & 39 St,40.655756593,-74.009909391
Clarkson Ave & Nostrand Ave,40.655420661,-73.94962275
Parkside Ave & Flatbush Ave,40.65563,-73.95968
Clarkson Ave & Utica Ave,40.656643391,-73.931309819
34 St & 4 Ave,40.655278,-74.003101
Prospect Park SW & 16 St,40.657265,-73.974165
New York Ave & Hawthorne St,40.65794,-73.94735
Prospect Park W & 20 St,40.656633,-73.983864
Winthrop St & Rogers Ave,40.65686,-73.95331
7 Ave & 22 St,40.658029,-73.989605
Flatbush Ave & Fenimore St,40.65798,-73.96051
29 St & 5 Ave,40.656986,-73.998194
Winthrop St & Schenectady Ave,40.65808,-73.93415
2 Ave & 32 St,40.659176,-74.006584
Albany Ave & Winthrop St,40.65791,-73.93967
11 Ave & Prospect Ave,40.656333447,-73.97729826
Winthrop St & Nostrand Ave,40.65707,-73.95005
19 St & 8 Ave,40.658489,-73.985543
Bedford Ave & Fenimore St,40.65815,-73.95674
24 St & 5 Ave,40.659435511,-73.994859457
30 St & 4 Ave,40.657743,-74.001141
Rutland Rd & E 45 St,40.66034,-73.93618
Windsor Pl & Howard Pl,40.65949055893896,-73.98013919591904
Nostrand Ave & Rutland Rd,40.6595,-73.95041
7 Ave & 20 St,40.659053,-73.98854
Maple St & Flatbush Ave,40.66026,-73.96045
Flatbush Ave & Lincoln Rd,40.66131,-73.96091
4 Ave & 26 St,40.660079,-73.998633
Midwood St & Utica Ave,40.66124,-73.93164
Maple St & Albany Ave,40.661569357,-73.939704776
Prospect Park SW & 10 Ave,40.659945,-73.977504
Maple St & New York Ave,40.66104,-73.94795
Windsor Pl & 8 Ave,40.660906,-73.983074
Bedford Ave & Maple St,40.660223365,-73.956816435
Rogers Ave & Lincoln Rd,40.66127,-73.95352
6 Ave & 21 St,40.660375357,-73.990789175
Lincoln Rd & Ocean Ave,40.6605,-73.9626
Schenectady Ave & Maple St,40.66178,-73.93445
Midwood St & Kingston Ave,40.66067,-73.94243
West Drive & Prospect Park West,40.6610633719006,-73.97945255041122
Sterling St & Nostrand Ave,40.66318,-73.95076
7 Ave & 17 St,40.66093779493168,-73.98680448532104
Sterling St & Bedford Ave,40.6627059,-73.9569115
21 St & 4 Ave,40.662584,-73.995554
E New York Ave & Troy Ave,40.66227,-73.93762
Rogers Ave & Sterling St,40.6630619,-73.9538746
17 St & 5 Ave,40.663493,-73.991007
Washington Ave & Empire Blvd,40.663128734,-73.96056056
Flatbush Ave & Ocean Ave,40.663657,-73.963014
Sullivan Pl & Franklin Ave,40.664049745,-73.960205197
23 St & 3 Ave,40.662611,-73.998623
Prospect Park West & 8 St,40.665054083,-73.976351261
Empire Blvd & New York Ave,40.663984776,-73.947628736
14 St & 7 Ave,40.663779,-73.98396846
Bedford Ave & Montgomery St,40.665816,-73.956934
Sullivan Pl & Bedford Ave,40.664256454,-73.957535863
4 Ave & 17 St,40.665507,-73.993037
Carroll St & Rochester Ave,40.666090965,-73.92845571
Kingston Ave & Montgomery St,40.66481,-73.94269
10 St & 7 Ave,40.6662078,-73.98199886
Crown St & Rogers Ave,40.66639,-73.95346
14 St & 5 Ave,40.666287,-73.98895053
Montgomery St & Franklin Ave,40.666439306870814,-73.9605563879013
3 Ave & 17 St,40.666168,-73.995549
Carroll St & Utica Ave,40.666194081,-73.931719542
Albany Ave & Carroll St,40.666816592,-73.939799666
New York Ave & Montgomery St,40.66509,-73.94824
6 Ave & 12 St,40.6663181,-73.9854617
6 Ave & 9 St,40.668127,-73.98377641
16th St & 4th Ave,40.66629982,-73.992661238
Buffalo Ave & E New York Ave,40.666180372,-73.926028609
Schenectady Ave & President St,40.66732,-73.93398
Kingston Ave & Carroll St,40.66688,-73.9425
6 St & 7 Ave,40.668622494,-73.979719877
President St & Nostrand Ave,40.66811,-73.9505
10 St & 5 Ave,40.6686273,-73.98700053
Eastern Pkwy & Ralph Ave,40.66852,-73.92284
Carroll St & Franklin Ave,40.667892933,-73.958712697
3 Ave & 14 St,40.668735862,-73.993237376
Eastern Pkwy & Rochester Ave,40.66846,-73.9282
Flatbush Ave & Eastern Pkwy,40.668757,-73.966438
Eastern Pkwy & Troy Ave,40.669340491,-73.936860204
3 St & Prospect Park West,40.668132,-73.97363831
Eastern Pkwy & Brooklyn Ave,40.66939,-73.94514
5 St & 6 Ave,40.6704836,-73.98208968
Union St & Bedford Ave,40.6691783,-73.9554162
12 St & 4 Ave,40.668603,-73.9904394
10 St & 4 Ave,40.66967356370341,-73.98898908183764
Buffalo Ave & St Johns Pl,40.67015,-73.92538
Carroll St & Washington Ave,40.6686744,-73.9618148
Eastern Pkwy & Schenectady Ave,40.668787003,-73.933633327
Eastern Pkwy & Kingston Ave,40.669631839,-73.942445278
3 St & 7 Ave,40.6703837,-73.97839676
Eastern Pkwy & Nostrand Ave,40.669666171,-73.950251937
7 St & 5 Ave,40.6704922,-73.98541675
St Johns Pl & Howard Ave,40.66992,-73.92002
Eastern Pkwy & Franklin Ave,40.6707767,-73.9576801
10 St & 2 Ave,40.671920776,-73.993661404
Sterling Pl & Rochester Ave,40.67128,-73.92825
Eastern Pkwy & Washington Ave,40.6716493,-73.9631145
Bay St & Court St,40.671409,-74.001328
Sterling Pl & Schenectady Ave,40.6716,-73.93378
Troy Ave & Park Pl,40.67251,-73.93642
Sigourney St & Columbia St,40.672790051,-74.009088039
St. Johns Pl & Kingston Ave,40.671170592,-73.942302704
1 St & 6 Ave,40.672784,-73.979826
Park Pl & Thomas S. Boyland St,40.67154,-73.91433
Lincoln Pl & Nostrand Ave,40.67077,-73.9507
Sterling Pl & Ralph Ave,40.670976639,-73.922180176
Lincoln Pl & Classon Ave,40.6721683,-73.9609
St Johns Pl & Utica Ave,40.6705,-73.9308
Park Pl & Utica Ave,40.672438264,-73.93096602
Henry St & Bay St,40.6725058,-74.00494695
Albany Ave & Park Pl,40.672974944,-73.938996434
Garfield Pl & 8 Ave,40.6711978,-73.97484126
Dwight St & Van Dyke St,40.67363551341504,-74.01195555925369
Sterling Pl & New York Ave,40.67234,-73.94763
5 Ave & 3 St,40.6728155,-73.98352355
Prospect Pl & Howard Ave,40.672648311,-73.91986692
Sterling Pl & Bedford Ave,40.672695,-73.954131
7 St & 3 Ave,40.67260298150126,-73.98983001708984
Park Pl & Buffalo Ave,40.67215097,-73.925420642
St Johns Pl & Washington Ave,40.6737236,-73.9631611
Schenectady Ave & Prospect Pl,40.673579097,-73.933591723
Plaza St East & Flatbush Ave,40.673134,-73.969106
Plaza St West & Flatbush Ave,40.6750207,-73.97111473
Grand Army Plaza & Plaza St West,40.6729679,-73.97087984
Columbia St & Lorraine St,40.675059795,-74.00736618
Pacific St & Sackman St,40.67522,-73.9061
Kingston Ave & Park Pl,40.67308,-73.94191
Carroll St & 6 Ave,40.6740886,-73.9787282
St Marks Ave & Thomas S. Boyland St,40.673134685,-73.913862705
Pacific St & Thomas S. Boyland St,40.67568,-73.91396
Prospect Pl & Nostrand Ave,40.674312353,-73.950410724
3 St & 3 Ave,40.6750705,-73.98775226
4 Ave & 3 St,40.673746,-73.985649
St Marks Ave & Ralph Ave,40.673725963,-73.922002554
Park Pl & Franklin Ave,40.674166322,-73.956335187
St Marks Ave & Rochester Ave,40.674016714,-73.927557111
Underhill Ave & Lincoln Pl,40.674021602,-73.967254519
Clinton St & Centre St,40.67434,-74.00194698
Bergen St & Troy Ave,40.67524,-73.93596
Berkeley Pl & 7 Ave,40.675216317,-73.975272655
Wolcott St & Dwight St,40.6753274,-74.0100698
Bergen St & Mother Gaston Blvd,40.67374,-73.90852
Brooklyn Ave & Prospect Pl,40.67412,-73.94447
Carroll St & 5 Ave,40.735353589,-74.046973348
Bergen St & Saratoga Ave,40.674389958,-73.916561007
Bedford Ave & Bergen St,40.676368,-73.952918
Bergen St & Buffalo Ave,40.674720287,-73.925171256
Classon Ave & St Marks Ave,40.676464319,-73.959476233
Smith St & 9 St,40.6746957,-73.99785768
Court St & Nelson St,40.676319361,-73.998759747
Schenectady Ave & Pacific St,40.67686,-73.93327
Columbia St & W 9 St,40.6769993,-74.00647134
Henry St & W 9 St,40.6763744,-74.00324957
Van Sinderen Ave & Atlantic Ave,40.67621,-73.90351
Bergen St & Kingston Ave,40.6756,-73.9415
Van Brunt St & Wolcott St,40.6773429,-74.01275056
Van Brunt St & Van Dyke St,40.6758329439129,-74.01472628116608
Dean St & Rockaway Ave,40.67486,-73.91123
New York Ave & St Marks Ave,40.67514,-73.94716
President St & 4 Ave,40.676757,-73.983262
Pacific St & Ralph Ave,40.676091671,-73.9215976
Franklin Ave & St Marks Ave,40.675875425,-73.956140995
Dean St & Franklin Ave,40.67759206937376,-73.955637216568
3 St & Hoyt St,40.6777287,-73.99364123
Pacific St & Rochester Ave,40.676378369,-73.927417994
Prospect Pl & Underhill Ave,40.6769694,-73.96579
Clinton St & 4 Place,40.6783563,-74.00014502
Fulton St & Williams Ave,40.677139521,-73.900867581
Pacific St & Troy Ave,40.67686,-73.93607
Verona Pl & Fulton St,40.680540204,-73.947632909
7 Ave & Park Pl,40.6776147,-73.97324283
Pioneer St & Richards St,40.6777748,-74.0094613
Herkimer St & Eastern Pkwy,40.677333474,-73.90833354
Brooklyn Ave & Dean St,40.67667973,-73.944297791
Berkeley Pl & 6 Ave,40.6765304,-73.97846879
Coffey St & Conover St,40.677236,-74.015665
Coffey St & Ferris St,40.67818387977647,-74.0170168876648
Thomas S. Boyland St & Fulton St,40.678732395,-73.913706064
Pacific St & Nostrand Ave,40.677609801,-73.949526548
3 Ave & Carroll St,40.677027,-73.9865
Columbus Pl & Atlantic Ave,40.677234292,-73.922894835
Pacific St & Classon Ave,40.679186106,-73.958925247
Smith St & 3 St,40.6787242,-73.99599099
Pacific St & Utica Ave,40.6767,-73.93051
Bergen St & Vanderbilt Ave,40.6794388,-73.9680438
Van Sinderen Ave & Truxton St,40.6786,-73.90369
Prospect Pl & 6 Ave,40.679229379,-73.974913001
Pioneer St & Van Brunt St,40.679057479,-74.011276245
Somers St & Rockaway Ave,40.67875886,-73.911070585
Herkimer St & New York Ave,40.67948997,-73.947191477
Douglass St & 4 Ave,40.6792788,-73.98154004
Union St & 4 Ave,40.6772744,-73.98282002
Fulton St & Saratoga Ave,40.678524613,-73.916654825
Brevoort Pl & Bedford Ave,40.68012,-73.95362
Carroll St & Bond St,40.678593397,-73.990283489
Sumpter St & Fulton St,40.67923,-73.92588
Grand Ave & Bergen St,40.678045,-73.962408
1 Pl & Clinton St,40.6809591,-73.99905709
Lewis Ave & Fulton St,40.679796934,-73.934640765
Chauncey St & Stuyvesant Ave,40.68010211,-73.931775451
Bergen St & Carlton Ave,40.680065274,-73.971138477
Carlton Ave & St Marks Ave,40.678964496,-73.971835971
Richards St & Delavan St,40.6794327,-74.00785041
Somers St & Broadway,40.679477811,-73.904719353
Kingston Ave & Herkimer St,40.67890679,-73.94142771
Sterling Pl & 5 Ave,40.678970070475735,-73.97855266928671
MacDougal St & Rockaway Ave,40.68018,-73.91136
Macon St & Nostrand Ave,40.6809833854,-73.9500479759
Douglass St & 3 Ave,40.680322647,-73.984603763
Degraw St & 3 Ave,40.67977,-73.9847
Ralph Ave & Fulton St,40.67922,-73.92192
